City_ID,City,Lat,Lng,Max Temp,Humidity,Cloudiness,Wind Speed,Country,Date
0,darwin,-12.4611,130.8418,82.38,85,60,8.05,AU,1707243302
1,hermanus,-34.4187,19.2345,74.8,73,33,19.91,ZA,1707243438
2,mount pearl,47.5166,-52.7813,33.46,97,100,26.46,CA,1707243438
3,edinburgh of the seven seas,-37.0676,-12.3116,62.4,69,8,6.13,SH,1707243438
4,sao felix do xingu,-6.6447,-51.995,88.81,59,100,7.23,BR,1707243321
5,la'ie,21.6477,-157.9253,74.61,71,2,11.99,US,1707243439
6,blackmans bay,-43.0167,147.3167,55.53,78,33,1.01,AU,1707243439
7,port mathurin,-19.6833,63.4167,80.69,74,20,13.8,MU,1707243438
8,cerro de ortega,18.75,-103.7667,85.12,52,0,5.95,MX,1707243439
9,invercargill,-46.4,168.35,54.01,98,100,8.99,NZ,1707243440
10,castillos,-34.1667,-53.8333,81.88,52,2,14.14,UY,1707243440
11,villaviciosa,43.4813,-5.4357,57.61,74,5,2.3,ES,1707243440
12,fort mcmurray,56.7268,-111.381,9.99,66,100,9.22,CA,1707243440
13,waitangi,-43.9535,-176.5597,63.82,94,61,5.01,NZ,1707243440
14,ilulissat,69.2167,-51.1,8.62,47,75,24.16,GL,1707243440
15,klyuchi,52.2667,79.1667,15.51,85,77,9.95,RU,1707243440
16,kongolo,-5.3833,27.0,71.37,97,98,3.62,CD,1707243441
17,atafu village,-8.5421,-172.5159,83.53,79,100,25.88,TK,1707243441
18,port-aux-francais,-49.35,70.2167,43.02,84,100,26.02,TF,1707243437
19,smara,26.7384,-11.6719,76.32,11,67,8.21,EH,1707243441
20,whitehorse,60.7161,-135.0538,0.37,77,100,5.75,CA,1707243441
21,kununurra,-15.7667,128.7333,78.78,94,93,4.61,AU,1707243239
22,taro,-8.3862,115.28,73.4,96,100,1.5,ID,1707243441
23,tabou,4.423,-7.3528,84.97,71,3,11.59,CI,1707243441
24,tura,25.5198,90.2201,57.79,87,52,3.67,IN,1707243442
25,adamstown,-25.066,-130.1015,76.82,80,8,3.36,PN,1707243442
26,papao,-17.75,-149.55,83.88,91,100,12.55,PF,1707243442
27,motueka,-41.1333,173.0167,59.09,53,12,5.44,NZ,1707243442
28,serov,59.6033,60.5787,13.23,96,100,5.99,RU,1707243442
29,mugia,43.1041,-9.2179,56.91,85,53,21.85,ES,1707243442
30,yenotayevka,47.2456,47.0281,31.53,69,20,23.89,RU,1707243442
31,utrik,11.2278,169.8474,79.61,81,100,16.24,MH,1707243443
32,gdov,58.7406,27.8122,18.57,98,92,2.93,RU,1707243443
33,usogorsk,63.4106,48.6872,-19.34,100,94,1.88,RU,1707243443
34,kem',64.9555,34.5793,-8.3,99,96,5.5,RU,1707243443
35,west island,-12.1568,96.8225,80.58,83,40,6.91,CC,1707243443
36,anna regina,7.2644,-58.5077,84.72,72,25,12.95,GY,1707243443
37,bardai,11.65,7.2333,73.72,17,38,10.85,NG,1707243444
38,grytviken,-54.2811,-36.5092,52.16,49,65,5.28,GS,1707243444
39,tiksi,71.6872,128.8694,-10.61,98,99,6.33,RU,1707243444
40,tuy hoa,13.0833,109.3,72.91,94,72,1.81,VN,1707243444
41,ushuaia,-54.8,-68.3,64.06,42,0,5.75,AR,1707243438
42,qusmuryn,52.4503,64.6311,34.2,87,100,21.9,KZ,1707243444
43,hawaiian paradise park,19.5933,-154.9731,67.03,94,100,9.22,US,1707243445
44,ribeira grande,38.5167,-28.7,64.8,94,100,21.0,PT,1707243445
45,svetlyy,54.675,20.1347,35.65,99,100,16.67,RU,1707243445
46,shiprock,36.7855,-108.687,48.54,41,100,15.17,US,1707243445
47,codrington,-38.2667,141.9667,53.55,86,5,2.28,AU,1707243445
48,nea alikarnassos,35.3333,25.1667,59.83,88,20,8.05,GR,1707243445
49,vila velha,-20.3297,-40.2925,82.35,87,20,11.5,BR,1707243445
50,jincheng,35.5022,112.8328,26.78,94,95,4.03,CN,1707243446
51,susuman,62.7833,148.1667,-28.01,99,97,3.0,RU,1707243446
52,colonia,50.9333,6.95,52.83,76,100,16.11,DE,1707243154
53,port lincoln,-34.7333,135.8667,60.66,77,1,8.1,AU,1707243446
54,sainte-marie,-20.8968,55.5496,78.93,69,0,13.8,RE,1707243446
55,ancud,-41.8697,-73.8203,59.79,92,100,11.05,CL,1707243446
56,ulanhot,46.0833,122.0833,5.41,85,5,5.28,CN,1707243446
57,remire-montjoly,4.9167,-52.2667,87.84,74,75,9.22,GF,1707243447
58,puerto lopez,4.0845,-72.956,83.79,68,99,1.32,CO,1707243447
59,guane,22.2025,-84.0875,73.85,46,97,15.7,CU,1707243447
60,sitka,57.0531,-135.33,35.49,87,75,3.44,US,1707243447
61,lethem,3.3803,-59.7968,99.55,33,42,9.33,GY,1707243447
62,aioun,16.6614,-9.6149,88.86,6,0,12.35,MR,1707243447
63,santo antonio do ica,-3.1022,-67.9397,81.0,89,100,4.21,BR,1707243448
64,palikir - national government center,6.9248,158.1611,79.54,83,40,4.61,FM,1707243448
65,dubno,50.4169,25.7343,44.89,77,100,20.87,UA,1707243448
66,longyearbyen,78.2186,15.6401,15.64,62,75,18.41,SJ,1707243359
67,wailua homesteads,22.0669,-159.378,72.39,73,100,19.57,US,1707243448
68,new norfolk,-42.7826,147.0587,56.7,80,37,2.42,AU,1707243448
69,avarua,-21.2078,-159.775,84.25,79,75,8.05,CK,1707243323
70,yellowknife,62.456,-114.3525,-3.59,88,100,11.5,CA,1707243440
71,gebeit,21.0667,36.3167,59.92,56,1,7.29,SD,1707243449
72,kayangel,8.0823,134.7173,81.18,77,100,20.18,PW,1707243439
73,quesnel,52.9999,-122.5029,27.1,86,100,3.44,CA,1707243449
74,minot air force base,48.4209,-101.3391,35.78,93,100,8.05,US,1707243449
75,ketchikan,55.3422,-131.6461,35.58,86,100,0.0,US,1707243449
76,nova vicosa,-17.8919,-39.3719,85.6,62,59,12.28,BR,1707243449
77,pyu,18.4833,96.4333,67.53,42,0,0.92,MM,1707243450
78,catemaco,18.4167,-95.1167,67.91,65,89,9.13,MX,1707243450
79,mehtar lam,34.6714,70.2094,45.5,38,41,5.97,AF,1707243450
80,lebu,-37.6167,-73.65,68.18,81,78,7.96,CL,1707243450
81,jamestown,42.097,-79.2353,42.03,47,0,4.61,US,1707243320
82,albany,42.6001,-73.9662,37.24,60,7,5.01,US,1707243420
83,talnakh,69.4865,88.3972,-3.8,89,35,6.89,RU,1707243450
84,isafjordur,66.0755,-23.124,26.06,90,100,17.52,IS,1707243451
85,kapuskasing,49.4169,-82.4331,37.49,87,100,9.22,CA,1707243442
86,east london,-33.0153,27.9116,76.14,78,0,13.8,ZA,1707243451
87,saipan,15.1355,145.701,75.9,73,20,6.91,MP,1707243451
88,mhamid,29.82,-5.72,61.75,23,93,3.4,MA,1707243451
89,ginir,7.1333,40.7,63.25,41,3,1.79,ET,1707243452
90,dudinka,69.4058,86.1778,-3.39,91,82,7.0,RU,1707243452
91,tashla,51.7716,52.7427,31.1,99,100,6.44,RU,1707243452
92,margaret river,-33.95,115.0667,60.3,70,16,13.65,AU,1707243293
93,dzialoszyn,51.117,18.8652,47.75,74,100,22.37,PL,1707243452
94,kharkhorin,47.1975,102.8238,-6.03,93,42,5.19,MN,1707243452
95,olonkinbyen,70.9221,-8.7187,29.57,89,81,19.08,SJ,1707243452
96,gao,16.6362,1.637,74.25,10,80,10.36,ML,1707243453
97,enewetak,11.3474,162.3373,79.63,82,82,18.23,MH,1707243453
98,jhulasan,23.3286,72.4731,71.35,52,38,7.07,IN,1707243453
99,vernon,50.2581,-119.2691,36.3,93,100,0.0,CA,1707243453
100,yilan,24.757,121.753,66.02,97,100,4.72,TW,1707243453
101,anadyr,64.75,177.4833,-12.5,84,75,11.18,RU,1707243454
102,anyama,5.4946,-4.0518,85.01,56,3,9.98,CI,1707243454
103,fisterra,42.9049,-9.2629,56.75,88,51,15.82,ES,1707243454
104,labytnangi,66.6572,66.4183,-2.54,99,100,5.37,RU,1707243450
105,thompson,55.7435,-97.8558,-3.89,80,3,6.93,CA,1707243342
106,catio,11.2833,-15.25,85.59,52,0,12.19,GW,1707243454
107,papatowai,-46.5619,169.4708,52.79,95,100,7.99,NZ,1707243454
108,vorkuta,67.5,64.0,-0.78,95,100,5.64,RU,1707243455
109,hotan,37.0997,79.9269,26.01,73,17,3.44,CN,1707243455
110,tofol,5.3248,163.0078,82.31,74,89,12.66,FM,1707243455
111,maceio,-9.6658,-35.7353,90.84,51,20,14.97,BR,1707243455
112,bethel,41.3712,-73.414,41.2,50,0,5.75,US,1707243455
113,peniche,39.3558,-9.3811,62.29,87,20,9.13,PT,1707243200
114,imbert,19.7537,-70.8291,73.9,90,67,4.52,DO,1707243455
115,warrnambool,-38.3833,142.4833,56.01,79,8,1.77,AU,1707243456
116,hemsby,52.6971,1.6918,54.41,91,100,16.35,GB,1707243456
117,tongchuanshi,35.0806,109.0897,27.3,70,90,5.17,CN,1707243456
118,tarawa,1.419,172.984,82.49,89,40,2.3,KI,1707243437
119,linxia chengguanzhen,35.6003,103.2064,21.9,94,100,2.57,CN,1707243456
120,richards bay,-28.783,32.0377,71.2,85,3,2.82,ZA,1707243346
121,queenstown,-31.8976,26.8753,75.04,49,55,8.37,ZA,1707243456
122,banff,51.1762,-115.5698,27.5,80,97,2.3,CA,1707243456
123,albertville,34.2676,-86.2089,60.66,41,0,5.75,US,1707243163
124,holualoa,19.6228,-155.9522,67.84,73,20,4.61,US,1707243415
125,mareeba,-17.0,145.4333,75.43,92,88,2.08,AU,1707243457
126,lihue,21.9789,-159.3672,72.99,73,100,19.57,US,1707243204
127,vila franca do campo,37.7167,-25.4333,64.89,99,100,17.6,PT,1707243457
128,kodiak,57.79,-152.4072,22.51,93,0,0.0,US,1707243457
129,dipayal,29.2608,80.94,49.71,73,1,4.47,NP,1707243457
130,puerto ayora,-0.7393,-90.3518,87.76,77,39,9.86,EC,1707243458
131,puerto natales,-51.7236,-72.4875,72.05,28,75,13.8,CL,1707243386
132,coquimbo,-29.9533,-71.3436,73.13,68,0,14.97,CL,1707243458
133,bilibino,68.0546,166.4372,-31.16,100,100,1.41,RU,1707243458
134,bredasdorp,-34.5322,20.0403,73.63,53,38,18.16,ZA,1707243458
135,chonchi,-42.6128,-73.8092,61.32,87,100,7.0,CL,1707243458
136,mejit,10.2753,170.8646,79.99,81,91,17.6,MH,1707243458
137,ola,59.5833,151.2833,-12.3,76,96,7.61,RU,1707243459
138,yerofey pavlovich,53.9667,121.9667,4.32,98,100,2.59,RU,1707243459
139,nemuro,43.3236,145.575,18.99,65,12,6.46,JP,1707243459
140,sananduva,-27.9497,-51.8067,84.25,58,100,4.0,BR,1707243459
141,ulsteinvik,62.3432,5.8487,26.76,68,100,5.01,NO,1707243459
142,young,-32.6833,-57.6333,104.31,23,15,7.07,UY,1707243459
143,iqaluit,63.7506,-68.5145,17.33,72,75,17.27,CA,1707243459
144,bargaal,11.2864,51.0773,77.56,76,37,7.14,SO,1707243460
145,kolwezi,-10.7148,25.4667,61.12,98,100,3.65,CD,1707243460
146,fort bragg,35.139,-79.006,53.65,43,9,4.0,US,1707243460
147,nar'yan-mar,67.6713,53.087,-23.89,100,65,3.0,RU,1707243460
148,alofi,-19.0595,-169.9187,75.09,88,24,2.3,NU,1707243322
149,ixtapa,20.7,-105.2,83.23,36,0,1.01,MX,1707243460
150,hamilton,39.1834,-84.5333,45.32,67,20,9.22,US,1707243355
151,nizhneudinsk,54.9076,99.0276,0.25,99,23,3.36,RU,1707243460
152,uturoa,-16.7333,-151.4333,81.86,86,100,18.52,PF,1707243460
153,badger,64.8,-147.5333,1.81,82,75,4.61,US,1707243461
154,novodvinsk,64.4165,40.8122,-4.22,100,73,2.46,RU,1707243461
155,aroma,15.8167,36.1333,76.06,39,20,12.68,SD,1707243461
156,baglung,28.2719,83.5898,48.7,57,56,4.9,NP,1707243461
157,luderitz,-26.6481,15.1594,68.97,79,66,14.58,NA,1707243461
158,kerman,30.2832,57.0788,37.26,22,0,6.91,IR,1707243461
159,vorgashor,67.5833,63.95,1.18,96,100,7.07,RU,1707243461
160,fernie,49.5,-115.0687,32.68,96,100,3.96,CA,1707243462
161,itacoatiara,-3.1431,-58.4442,96.75,38,27,5.97,BR,1707243462
162,numazu,35.1,138.8667,39.02,92,100,4.45,JP,1707243462
163,bandarbeyla,9.4942,50.8122,77.47,75,3,14.09,SO,1707243462
164,gadzhiyevo,69.2551,33.3362,1.06,98,98,12.12,RU,1707243462
165,hrazdan,40.4975,44.7662,25.39,93,82,10.85,AM,1707243462
166,sabzevar,36.2126,57.6819,43.48,56,27,5.88,IR,1707243462
167,sos'va,59.1766,61.8558,23.05,92,99,5.99,RU,1707243462
168,ciudad lazaro cardenas,17.9583,-102.2,84.49,55,81,6.31,MX,1707243463
169,chibougamau,49.9168,-74.3659,20.82,63,75,8.05,CA,1707243415
170,nova olinda do norte,-3.8881,-59.0942,96.46,41,34,5.97,BR,1707243463
171,port elizabeth,-33.918,25.5701,74.1,87,75,17.27,ZA,1707243463
172,saldanha,-33.0117,17.9442,69.85,88,42,11.18,ZA,1707243463
173,mili,6.0815,171.735,81.77,78,98,18.14,MH,1707243323
174,udachny,66.4167,112.4,-13.49,100,96,4.09,RU,1707243463
175,aswan,24.0934,32.907,62.87,34,0,10.47,EG,1707243463
176,stanley,54.868,-1.6985,40.78,74,20,11.5,GB,1707243464
177,katsuura,35.1333,140.3,36.45,85,94,6.31,JP,1707243464
178,ubach-palenberg,50.9333,6.1167,52.25,83,75,18.41,DE,1707243464
179,st. john's,47.5649,-52.7093,34.29,97,100,35.01,CA,1707243338
180,quellon,-43.1167,-73.6167,62.15,77,100,14.63,CL,1707243464
181,carrigaline,51.8117,-8.3986,44.35,100,75,16.11,IE,1707243464
182,puerto baquerizo moreno,-0.9,-89.6,83.39,84,75,14.97,EC,1707243464
183,belem de sao francisco,-8.7539,-38.9658,99.25,23,99,8.12,BR,1707243464
184,shimoda,34.6667,138.95,39.11,90,100,8.59,JP,1707243464
185,olyokminsk,60.3736,120.4264,8.26,98,100,2.57,RU,1707243465
186,tursunzoda,38.5144,68.2333,42.42,61,100,7.49,TJ,1707243465
187,triunfo,-29.9433,-51.7181,87.19,53,100,8.7,BR,1707243465
188,chulucanas,-5.0925,-80.1625,88.81,57,68,4.47,PE,1707243465
189,crane,31.3974,-102.3501,59.94,39,84,17.02,US,1707243465
190,argo,37.6333,22.7333,52.79,61,1,9.42,GR,1707243465
191,huanren,41.2647,125.3667,-0.24,99,42,3.53,CN,1707243465
192,novoishimskiy,53.1981,66.7694,29.64,85,100,18.81,KZ,1707243466
193,selizharovo,56.8519,33.4487,10.44,99,90,3.85,RU,1707243466
194,tomatlan,19.9333,-105.25,88.11,40,1,5.41,MX,1707243466
195,bodo,67.28,14.405,19.78,75,75,14.97,NO,1707243466
196,georgetown,5.4112,100.3354,82.35,80,40,4.61,MY,1707243466
197,rawson,-43.3002,-65.1023,96.51,14,100,26.98,AR,1707243466
198,vila do maio,15.1333,-23.2167,84.99,62,0,9.33,CV,1707243466
199,ust-nera,64.5667,143.2,-29.83,90,31,1.03,RU,1707243456
200,paracuru,-3.41,-39.0306,85.1,61,90,15.08,BR,1707243467
201,aasiaat,68.7098,-52.8699,-6.81,81,96,13.58,GL,1707243467
202,paragominas,-2.9667,-47.4833,88.56,58,65,3.83,BR,1707243467
203,pimenta bueno,-11.6725,-61.1936,91.67,53,94,3.44,BR,1707243467
204,umm ruwaba,12.9061,31.2158,71.11,13,98,12.01,SD,1707243467
205,afaahiti,-17.75,-149.2833,82.27,90,100,2.55,PF,1707243467
206,la passe,45.5549,-0.8967,51.98,88,100,9.84,FR,1707243467
207,lamu,-2.2717,40.902,81.28,83,71,17.69,KE,1707243468
208,balod,20.73,81.2047,72.77,39,0,4.36,IN,1707243468
209,waingapu,-9.6567,120.2641,78.42,84,41,5.53,ID,1707243468
210,puerto aysen,-45.4,-72.7,61.7,87,99,6.51,CL,1707243468
211,hilo,19.7297,-155.09,68.61,93,100,9.22,US,1707243381
212,tralee,52.2704,-9.7026,43.05,93,100,6.91,IE,1707243468
213,jiazi,22.8779,116.067,59.61,88,100,16.6,CN,1707243468
214,belmopan,17.25,-88.7667,68.38,57,36,5.32,BZ,1707243405
215,iwon-up,40.3231,128.6553,23.47,89,49,5.32,KP,1707243468
216,masterton,-40.9597,175.6575,59.88,92,6,5.79,NZ,1707243266
217,odda,60.0691,6.5457,32.77,95,100,6.35,NO,1707243469
218,goundi,9.3627,17.366,86.45,15,14,4.97,TD,1707243469
219,sint michiel liber,12.15,-68.9833,89.42,62,20,11.5,CW,1707243469
220,zhezqazghan,47.7833,67.7667,28.4,87,98,17.34,KZ,1707243469
221,itaituba,-4.2761,-55.9836,91.56,62,40,4.61,BR,1707243469
222,qaqortoq,60.7167,-46.0333,8.13,63,0,8.86,GL,1707243469
223,saint-denis,48.9167,2.3333,53.38,86,100,14.97,FR,1707243469
224,fale old settlement,-9.3852,-171.2468,82.49,83,100,27.07,TK,1707243470
225,salalah,17.0151,54.0924,75.29,69,0,4.61,OM,1707243470
226,kerikeri,-35.2268,173.9474,56.91,91,16,3.4,NZ,1707243470
227,prince george,53.9166,-122.753,27.84,86,100,3.44,CA,1707243310
228,portland,45.5234,-122.6762,48.18,94,75,4.0,US,1707243069
229,bridlington,54.0831,-0.1919,46.02,72,100,5.01,GB,1707243470
230,cururupu,-1.8283,-44.8683,88.16,61,46,9.06,BR,1707243470
231,kirchheimbolanden,49.6725,8.0189,48.88,80,100,20.85,DE,1707243470
232,port alfred,-33.5906,26.891,70.18,90,34,3.0,ZA,1707243471
233,college,64.8569,-147.8028,1.9,78,75,4.61,US,1707243471
234,opuwo,-18.0607,13.84,74.46,71,98,16.64,NA,1707243471
235,tovarkovskiy,53.6822,38.2092,19.47,96,100,8.59,RU,1707243471
236,the pas,53.8251,-101.2541,12.22,79,100,6.91,CA,1707243471
237,guerrero negro,27.9769,-114.0611,60.8,83,99,10.69,MX,1707243471
238,geri,35.1,33.4167,58.08,88,0,16.11,CY,1707243471
239,cidreira,-30.1811,-50.2056,77.05,79,96,11.72,BR,1707243471
240,polyarnyy,69.1989,33.4478,-0.96,99,98,11.18,RU,1707243471
241,shaowu,27.3409,117.4831,41.85,98,100,1.99,CN,1707243472
242,hadibu,12.65,54.0333,77.95,72,0,11.97,YE,1707243472
243,praia da vitoria,38.7333,-27.0667,66.45,82,40,18.79,PT,1707243472
244,ocean city,39.2776,-74.5746,44.19,61,5,11.01,US,1707243472
245,narragansett,41.4501,-71.4495,37.2,69,100,18.41,US,1707243472
246,trincomalee,8.5711,81.2335,79.79,72,27,13.85,LK,1707243472
247,luena,-11.7833,19.9167,63.09,98,59,4.0,AO,1707243472
248,puntarenas,9.9763,-84.8384,89.49,48,18,7.18,CR,1707243472
249,acapulco de juarez,16.8634,-99.8901,84.02,61,20,6.91,MX,1707243473
250,barra,-11.0894,-43.1417,90.48,41,80,2.73,BR,1707243473
251,brush,40.2589,-103.6238,47.48,87,0,4.61,US,1707243473
252,ilha solteira,-20.4328,-51.3425,85.51,49,100,8.1,BR,1707243473
253,nabire,-3.3667,135.4833,76.3,94,100,0.76,ID,1707243473
254,urangan,-25.3,152.9,79.72,84,7,11.23,AU,1707243473
255,contamana,-7.3333,-75.0167,94.69,42,75,4.56,PE,1707243473
256,nuku'alofa,-21.1333,-175.2,75.54,83,75,6.91,TO,1707243310
257,puerto san jose,13.9256,-90.8244,88.5,38,0,10.6,GT,1707243473
258,cabedelo,-6.9811,-34.8339,90.27,66,53,12.64,BR,1707243293
259,la sarre,48.8002,-79.1996,31.69,97,100,8.39,CA,1707243474
260,robore,-18.3333,-59.75,91.49,58,75,4.61,BO,1707243474
261,acarau,-2.8856,-40.12,88.07,62,81,18.88,BR,1707243474
262,mount isa,-20.7333,139.5,80.37,83,80,5.75,AU,1707243474
263,conselheiro lafaiete,-20.6603,-43.7861,74.97,76,94,1.66,BR,1707243453
264,nouadhibou,20.931,-17.0347,80.58,29,7,9.22,MR,1707243474
265,thurso,58.5927,-3.5259,35.85,65,94,25.97,GB,1707243475
266,junnar,19.2,73.8833,70.48,50,0,3.85,IN,1707243475
267,sihanoukville,10.6093,103.5296,76.95,88,40,3.44,KH,1707243475
268,kutum,14.2,24.6667,62.74,22,4,10.85,SD,1707243475
269,flying fish cove,-10.4217,105.6791,73.08,100,59,0.0,CX,1707243323
270,petropavlovsk-kamchatsky,53.0452,158.6483,14.59,84,75,6.71,RU,1707243474
271,lompoc,34.6391,-120.4579,56.79,67,0,4.61,US,1707243475
272,rio gallegos,-51.6226,-69.2181,64.45,36,0,10.36,AR,1707243476
273,cova figueira,14.8905,-24.2934,72.23,63,0,11.65,CV,1707243476
274,lisakovsk,52.5369,62.4936,31.86,92,100,24.27,KZ,1707243476
275,eureka,40.8021,-124.1637,49.19,94,100,3.0,US,1707243421
276,kirksville,40.1948,-92.5833,54.59,34,0,1.99,US,1707243222
277,aktobe,50.2797,57.2072,30.29,80,75,29.08,KZ,1707243476
278,mount gambier,-37.8333,140.7667,51.55,93,2,0.98,AU,1707243476
279,san patricio,28.017,-97.5169,67.15,52,1,4.09,US,1707243477
280,bogande,12.9714,-0.1436,83.21,11,76,11.39,BF,1707243477
281,puerto lempira,15.2667,-83.7667,84.34,70,40,14.97,HN,1707243477
282,mahibadhoo,3.7833,72.9667,81.72,80,99,15.35,MV,1707243477
283,kone,-21.0595,164.8658,76.82,93,100,5.14,NC,1707243477
284,nuuk,64.1835,-51.7216,16.41,73,20,3.44,GL,1707243203
285,yeppoon,-23.1333,150.7333,78.58,91,11,4.14,AU,1707243477
286,bamboo flat,11.7,92.7167,73.49,94,32,1.14,IN,1707243477
287,springbok,-29.6643,17.8865,65.97,51,82,12.19,ZA,1707243477
288,tsiombe,-25.3,45.4833,73.22,96,78,9.1,MG,1707243478
289,damoh,23.8333,79.45,62.4,52,7,7.34,IN,1707243478
290,usinsk,65.9939,57.5281,-2.92,99,100,3.0,RU,1707243478
291,revda,56.801,59.9303,29.75,97,100,9.73,RU,1707243478
292,papar,5.7333,115.9333,77.0,85,87,6.2,MY,1707243478
293,dryden,49.7833,-92.7503,35.89,80,100,3.44,CA,1707243478
294,valdivia,-39.8142,-73.2459,66.29,93,100,3.87,CL,1707243478
295,praia,14.9215,-23.5087,84.74,32,0,13.8,CV,1707243479
296,sabang,5.8933,95.3214,81.7,78,100,12.75,ID,1707243479
297,al kharijah,25.4514,30.5464,57.81,46,0,8.5,EG,1707243479
298,malango,-2.9627,119.9001,67.66,96,100,3.11,ID,1707243479
299,benguela,-12.5763,13.4055,80.92,75,45,6.2,AO,1707243479
300,vilyuchinsk,52.9306,158.4028,16.07,92,81,6.6,RU,1707243480
301,punta arenas,-53.15,-70.9167,66.22,51,0,14.97,CL,1707243352
302,piacabucu,-10.4056,-36.4344,86.45,60,80,10.89,BR,1707243480
303,manokwari,-0.8667,134.0833,77.43,87,100,3.06,ID,1707243480
304,reggane,26.7158,0.1714,67.3,14,93,6.31,DZ,1707243480
305,kaedi,16.1465,-13.5047,96.08,6,0,10.51,MR,1707243480
306,yacuiba,-22.038,-63.6797,83.17,78,75,0.0,BO,1707243480
307,serowe,-22.3833,26.7167,81.95,34,58,5.28,BW,1707243480
308,greymouth,-42.4667,171.2,62.22,84,95,3.83,NZ,1707243444
309,walvis bay,-22.9575,14.5053,72.55,78,98,1.14,NA,1707243470
310,arraial do cabo,-22.9661,-42.0278,85.96,79,20,12.66,BR,1707243481
311,kapa'a,22.0752,-159.319,73.72,72,100,19.57,US,1707243481
312,villa de arista,22.65,-100.8333,65.21,19,17,2.66,MX,1707243481
313,lesnoy,57.6198,63.0784,32.27,98,100,11.41,RU,1707243481
314,halifax,44.6453,-63.5724,35.49,85,100,15.01,CA,1707243474
315,malanje,-9.5402,16.341,65.5,98,100,3.31,AO,1707243482
316,constitucion,-35.3333,-72.4167,73.42,65,22,14.16,CL,1707243482
317,tolanaro,-25.0319,46.9987,73.89,98,90,4.47,MG,1707243473
318,isla vista,34.4133,-119.861,57.02,90,75,0.0,US,1707243232
319,fortuna,40.5982,-124.1573,48.92,94,100,5.01,US,1707243482
320,araguaina,-7.1911,-48.2072,88.07,58,88,3.78,BR,1707243482
321,tank,32.2217,70.3793,55.58,34,0,3.94,PK,1707243483
322,freetown,8.484,-13.2299,83.91,70,0,10.36,SL,1707243483
323,mossel bay,-34.1831,22.146,73.33,83,100,3.22,ZA,1707243483
324,nadi,-17.8,177.4167,77.0,88,40,4.61,FJ,1707243483
325,puerto deseado,-47.7503,-65.8938,77.9,25,97,22.39,AR,1707243483
326,altay,47.8667,88.1167,12.87,62,44,7.54,CN,1707243483
327,coahuayana de hidalgo,18.7,-103.6583,85.84,51,0,4.99,MX,1707243484
328,sur,22.5667,59.5289,72.36,57,100,3.89,OM,1707243484
329,rongelap,11.1635,166.8941,79.21,83,71,15.43,MH,1707243472
330,hirschau,49.545,11.9508,46.81,82,100,15.52,DE,1707243484
331,huangnihe,43.5583,128.0239,-2.15,98,48,4.52,CN,1707243484
332,makhambet,47.6667,51.5833,27.77,77,76,29.28,KZ,1707243484
333,antonio enes,-16.2325,39.9086,76.95,93,64,3.56,MZ,1707243485
334,keflavik,64.0049,-22.5624,28.31,68,75,20.71,IS,1707243485
335,maridi,4.9158,29.4742,80.53,27,4,5.53,SS,1707243485
336,moose jaw,50.4001,-105.5344,26.87,86,100,6.91,CA,1707243485
337,dame-marie,18.5667,-74.4167,78.69,61,11,18.19,HT,1707243485
338,kachug,53.9606,105.8817,-7.69,100,68,0.27,RU,1707243485
339,alice springs,-23.7,133.8833,73.22,65,40,13.8,AU,1707243485
340,constantia,44.1833,28.65,52.7,60,29,12.53,RO,1707243476
341,harper,4.375,-7.7169,84.76,74,5,12.93,LR,1707243486
342,mata-utu,-13.2816,-176.1745,83.16,80,100,18.14,WF,1707243486
343,nantucket,41.2835,-70.0995,37.51,75,75,20.71,US,1707243486
344,khenchela,35.4358,7.1433,50.41,38,86,8.34,DZ,1707243486
345,souillac,-20.5167,57.5167,76.35,77,23,12.01,MU,1707243487
346,tazacorte,28.629,-17.9293,72.14,49,0,5.75,ES,1707243487
347,ifrane,33.3333,-5.25,43.61,46,0,4.09,MA,1707243487
348,lashio,22.9333,97.75,53.83,70,0,1.3,MM,1707243487
349,sompeta,18.9333,84.6,75.34,79,4,9.69,IN,1707243487
350,pandan,14.0453,124.1694,76.64,83,34,8.03,PH,1707243487
351,antalaha,-14.9003,50.2788,78.04,88,100,2.39,MG,1707243487
352,pudasjarvi,65.3833,26.9167,-13.0,100,90,3.53,FI,1707243487
353,pedernales,18.0384,-71.744,79.74,75,77,15.5,DO,1707243488
354,kabalo,-6.05,26.9167,70.63,97,73,4.61,CD,1707243488
355,howrah,22.5892,88.3103,71.6,88,75,0.0,IN,1707243488
356,weyburn,49.6668,-103.8511,28.62,93,85,5.75,CA,1707243261
357,galesong,-5.3166,119.3661,73.42,83,94,5.19,ID,1707243488
358,ravar,31.2656,56.8055,48.43,17,0,5.44,IR,1707243488
359,geraldton,-28.7667,114.6,63.01,67,38,6.91,AU,1707243444
360,saint-joseph,-21.3667,55.6167,73.78,79,62,11.52,RE,1707243489
361,naze,28.3667,129.4833,56.32,79,100,8.5,JP,1707243476
362,inari,68.906,27.0288,-7.04,97,99,5.1,FI,1707243492
363,urengoy,65.9667,78.3667,10.22,98,99,5.48,RU,1707243492
364,north bend,43.4065,-124.2243,48.07,93,75,6.91,US,1707243492
365,pisco,-13.7,-76.2167,84.25,58,0,10.36,PE,1707243330
366,galliano,29.4422,-90.2992,64.99,56,0,10.18,US,1707243493
367,santa sylvina,-27.8326,-61.1375,106.92,20,54,10.09,AR,1707243493
368,ciudad rodrigo,40.6,-6.5333,52.77,78,31,5.37,ES,1707243493
369,melekeok village,7.4957,134.6367,77.34,91,100,14.65,PW,1707243493
370,cabo san lucas,22.8909,-109.9124,80.62,56,0,8.05,MX,1707243351
371,kailua-kona,19.6406,-155.9956,71.56,73,20,4.61,US,1707243493
372,hithadhoo,-0.6,73.0833,82.45,77,92,8.19,MV,1707243493
373,korla,41.7597,86.1469,22.91,76,16,3.83,CN,1707243456
374,suva,-18.1416,178.4415,80.08,83,75,9.22,FJ,1707243494
375,al jubayl,27.0112,49.6583,65.08,49,0,7.78,SA,1707243494
376,lake murray of richland,34.1205,-81.2645,55.89,46,2,13.53,US,1707243494
377,mil'kovo,55.6078,37.7956,26.11,98,96,4.41,RU,1707243494
378,newman,37.3138,-121.0208,53.83,91,100,5.01,US,1707243306
379,angaur state,6.906,134.13,79.21,87,100,23.04,PW,1707243495
380,tanumah,27.1,44.1333,57.63,28,0,3.91,SA,1707243495
381,erbaa,40.6689,36.5675,48.7,71,40,2.55,TR,1707243495
382,ta`u,-14.2336,-169.5144,79.59,89,100,13.04,AS,1707243495
383,marsh harbour,26.5412,-77.0636,69.21,70,86,24.94,BS,1707243458
384,lhokseumawe,5.1801,97.1507,78.3,84,95,6.44,ID,1707243496
385,volkhov,59.9258,32.3382,-5.93,100,94,2.26,RU,1707243496
386,singaraja,-8.112,115.0882,80.1,84,100,1.45,ID,1707243496
387,timbuktu,16.7735,-3.0074,79.63,8,0,11.5,ML,1707243496
388,lagos,6.5833,3.75,88.12,47,7,5.41,NG,1707243404
389,puerto rosario,-24.45,-57.0833,99.59,30,100,4.38,PY,1707243497
390,tual,-5.6667,132.75,82.9,78,100,24.63,ID,1707243497
391,holbrook,40.8123,-73.0784,41.97,54,20,12.66,US,1707243497
392,dalaba,10.7,-12.25,84.85,12,0,6.31,GN,1707243497
393,maryville,35.7565,-83.9705,59.58,39,20,8.05,US,1707243225
394,nanping,26.645,118.1736,49.41,97,100,2.1,CN,1707243498
395,diapaga,12.0708,1.7889,85.33,11,41,9.95,BF,1707243498
396,qala i naw,34.9874,63.1289,50.83,28,100,13.22,AF,1707243498
397,bonthe,7.5264,-12.505,84.09,70,0,12.84,SL,1707243498
398,muisne,0.6,-80.0333,83.19,74,66,7.72,EC,1707243498
399,port maria,18.3685,-76.8895,85.96,78,6,21.61,JM,1707243498
400,gisborne,-38.6533,178.0042,59.56,84,59,3.49,NZ,1707243499
401,aitape,-3.1374,142.3475,78.6,89,100,10.76,PG,1707243499
402,houmt el souk,33.8758,10.8575,62.55,55,0,12.66,TN,1707243499
403,sandwip,22.4678,91.4561,69.84,86,41,5.37,BD,1707243499
404,vyritsa,59.4078,30.3481,9.91,99,95,2.71,RU,1707243499
405,beitbridge,-22.2167,30.0,84.69,48,54,6.11,ZW,1707243499
406,khandyga,62.6667,135.6,-46.71,100,61,2.37,RU,1707243499
407,kingston,17.997,-76.7936,85.15,55,40,14.97,JM,1707243500
408,pedro ii,-4.4247,-41.4586,94.3,25,100,7.85,BR,1707243500
409,serenje,-13.2325,30.2352,64.02,97,86,5.21,ZM,1707243500
410,hadithah,34.1397,42.3781,57.43,52,3,3.49,IQ,1707243500
411,eyl,7.9803,49.8164,77.32,75,14,14.07,SO,1707243500
412,kaka,37.3482,59.6143,51.17,44,67,7.58,TM,1707243500
413,biograd na moru,43.9433,15.4519,55.76,87,100,6.98,HR,1707243501
414,obo,5.3998,26.4869,79.95,22,4,5.93,CF,1707243501
415,lakhdenpokh'ya,61.5198,30.1992,-1.25,100,32,4.56,RU,1707243501
416,olinda,-8.0089,-34.8553,87.53,66,20,9.22,BR,1707243501
417,glace bay,46.1969,-59.957,35.58,90,100,25.32,CA,1707243501
418,taquarana,-9.645,-36.4972,92.75,39,89,13.58,BR,1707243501
419,egilsstadir,65.2653,-14.3948,22.91,74,75,6.91,IS,1707243501
420,dunedin,-45.8742,170.5036,56.8,97,100,10.0,NZ,1707243501
421,artashat,39.9614,44.5445,46.62,74,65,1.54,AM,1707243502
422,whitecourt,54.1502,-115.6855,18.64,100,100,10.36,CA,1707243422
423,tulun,54.5611,100.5792,-5.39,100,84,3.38,RU,1707243502
424,fiambala,-27.6871,-67.6149,88.63,24,15,12.48,AR,1707243502
425,villa regina,-39.1,-67.0667,96.98,15,91,5.01,AR,1707243502
426,kzyltu,53.6364,72.3414,22.03,85,97,13.71,KZ,1707243502
427,gereida,11.2811,25.1414,73.18,15,5,11.7,SD,1707243502
428,okhotsk,59.3833,143.3,-8.45,81,100,10.27,RU,1707243503
429,hailar,49.2,119.7,-20.4,100,52,5.48,CN,1707243503
430,fada,9.5667,8.3,80.01,16,99,6.46,NG,1707243503
431,choibalsan,48.0667,114.5,-4.43,91,5,7.9,MN,1707243503
432,byron bay,-28.65,153.6167,73.71,88,4,5.23,AU,1707243503
433,kenai,60.5544,-151.2583,14.05,92,75,3.44,US,1707243503
434,isla mujeres,21.2311,-86.731,69.85,58,47,19.95,MX,1707243503
435,san rafael,-34.6177,-68.3301,100.87,22,6,19.04,AR,1707243345
436,miyazu,35.5333,135.1833,43.38,62,98,15.35,JP,1707243504
437,trenggalek,-8.05,111.7167,76.91,92,100,3.49,ID,1707243504
438,korablino,53.9164,40.0133,21.83,90,100,10.65,RU,1707243504
439,iskateley,67.6803,53.1512,-23.98,100,73,3.0,RU,1707243504
440,sampaloc,14.5402,121.3602,74.57,93,63,4.9,PH,1707243504
441,lerwick,60.1545,-1.1494,33.8,62,99,25.08,GB,1707243504
442,parabel',58.6978,81.4825,24.91,95,99,7.0,RU,1707243505
443,port douglas,-16.4833,145.4667,76.93,96,100,2.1,AU,1707243505
444,san antonio de pale,-1.4014,5.6325,83.26,70,63,2.57,GQ,1707243505
445,zouerate,22.7187,-12.4521,78.08,6,53,9.82,MR,1707243505
446,fomboni,-12.28,43.7425,84.83,76,92,8.03,KM,1707243505
447,boueni,-12.9025,45.0761,84.18,75,100,4.41,YT,1707243505
448,ad darb,17.7229,42.2526,77.2,62,71,11.1,SA,1707243506
449,birzebbuga,35.8258,14.5269,59.68,88,20,4.61,MT,1707243506
450,sena madureira,-9.0656,-68.6569,89.94,53,75,4.56,BR,1707243506
451,bangassou,4.7413,22.8184,80.74,26,30,3.18,CF,1707243506
452,lospalos,-8.5186,127.0025,73.49,92,100,3.4,TL,1707243506
453,whitby,54.4877,-0.615,43.32,70,100,8.99,GB,1707243352
454,knoxville,35.9606,-83.9207,58.6,38,0,8.05,US,1707242837
455,beidaihehaibin,39.8222,119.5181,25.18,68,0,1.16,CN,1707243506
456,qamdo,31.1667,97.2333,20.17,41,100,6.96,CN,1707243507
457,santa elena de uairen,4.6167,-61.1333,80.64,55,71,8.61,VE,1707243507
458,langepas,61.2544,75.2124,28.63,93,100,8.57,RU,1707243507
459,sittwe,20.15,92.9,71.17,72,0,10.33,MM,1707243507
460,novyy urgal,51.0736,132.5642,-21.69,100,100,1.83,RU,1707243507
461,kabansk,52.0486,106.6528,2.8,92,13,4.27,RU,1707243507
462,svobodnyy,51.4,128.1333,-12.48,100,30,2.68,RU,1707243507
463,den burg,53.0542,4.7972,50.97,93,100,27.63,NL,1707243507
464,awjilah,29.1081,21.2869,61.25,52,0,6.11,LY,1707243508
465,as sulayyil,20.4607,45.5779,68.25,35,43,13.56,SA,1707243508
466,hirara,24.8,125.2833,64.67,82,20,9.22,JP,1707243508
467,mbanza-ngungu,-5.25,14.8667,69.76,95,96,2.95,CD,1707243508
468,taroa,8.7058,171.2275,81.3,77,98,17.2,MH,1707243508
469,buta,2.7858,24.73,81.1,31,0,2.06,CD,1707243508
470,hammerfest,70.6634,23.6821,23.45,86,100,17.27,NO,1707243499
471,el granada,37.5027,-122.4694,55.42,84,100,1.01,US,1707243509
472,al hudaydah,14.7978,42.9545,79.27,75,75,12.15,YE,1707243509
473,taikang,46.8333,124.4167,-1.1,97,5,2.24,CN,1707243509
474,toamasina,-18.1667,49.3833,78.8,89,75,2.3,MG,1707243509
475,ebon,4.582,168.6964,82.0,76,86,11.95,MH,1707243509
476,baiquan,47.5833,126.0833,-11.29,99,18,3.91,CN,1707243509
477,yuxia,34.0615,108.6291,30.81,70,95,2.42,CN,1707243509
478,tazovsky,67.4667,78.7,7.05,94,100,12.8,RU,1707243510
479,itoman,26.1247,127.6694,66.97,69,100,2.3,JP,1707243417
480,marka,1.7159,44.7717,79.74,85,93,15.5,SO,1707243510
481,dailekh,28.8333,81.6667,47.1,63,0,5.26,NP,1707243510
482,happy valley-goose bay,53.3168,-60.3315,16.11,53,20,4.61,CA,1707243510
483,idri,27.5,13.2667,56.17,35,5,4.36,LY,1707243510
484,itagui,6.1719,-75.6114,81.54,69,40,11.01,CO,1707243510
485,klaksvik,62.2266,-6.589,29.32,61,98,19.1,FO,1707243510
486,acajutla,13.5928,-89.8275,87.1,36,8,3.98,SV,1707243358
487,sweet home,44.3976,-122.7362,46.42,81,99,1.01,US,1707243511
488,muli,2.9167,73.5667,81.59,82,89,14.41,MV,1707243511
489,corowa,-36.0333,146.3833,53.42,82,13,8.08,AU,1707243511
490,sanctuary point,-35.1114,150.629,65.75,77,33,3.69,AU,1707243511
491,belyy yar,53.6039,91.3903,-2.31,100,44,2.24,RU,1707243511
492,bayji,34.9311,43.487,54.93,59,1,2.93,IQ,1707243511
493,zhuanghe,39.7008,122.9911,15.93,62,0,6.98,CN,1707243512
494,chinde,26.8418,88.0763,44.91,84,21,5.66,NP,1707243512
495,wenchang,30.904,118.4887,29.03,97,94,3.85,CN,1707243512
496,ust-tsilma,65.441,52.1498,-9.38,99,98,1.01,RU,1707243512
497,pacasmayo,-7.4006,-79.5714,74.62,82,17,12.57,PE,1707243512
498,dalandzadgad,43.5708,104.425,4.86,81,5,1.74,MN,1707243512
499,charqueada,-22.5097,-47.7781,88.47,39,96,7.94,BR,1707243512
500,phan thiet,10.9333,108.1,74.28,88,91,6.38,VN,1707243513
501,ambon,-3.6954,128.1814,82.54,15,40,5.75,ID,1707243513
502,along,28.1667,94.7667,53.28,97,99,2.01,IN,1707243513
503,granite bay,38.7632,-121.1638,53.71,89,99,1.01,US,1707243513
504,wuyishan,28.0047,117.8114,39.24,99,100,2.28,CN,1707243513
505,runaway bay,18.4596,-77.3357,77.4,67,6,25.46,JM,1707243513
506,basi,26.8333,76.0333,59.34,36,97,5.32,IN,1707243513
507,caldwell,43.6629,-116.6874,47.32,87,0,0.0,US,1707243514
508,aykhal,66.0,111.5,-17.5,100,98,5.7,RU,1707243514
509,tuchow,49.8949,21.0541,49.98,70,100,18.28,PL,1707243514
510,vadso,70.0744,29.7487,15.96,92,75,3.44,NO,1707243514
511,sibolga,1.7427,98.7792,77.86,89,96,2.35,ID,1707243514
512,la tuque,47.4334,-72.7824,25.05,42,56,1.14,CA,1707243514
513,siwa oasis,29.2041,25.5195,62.11,46,0,4.94,EG,1707243515
514,tvoroyri,61.5556,-6.8111,33.94,58,98,20.49,FO,1707243515
515,ugoofaaru,5.6667,73.0,81.81,75,86,15.37,MV,1707243515
516,la mira,18.035,-102.3266,85.19,53,72,7.18,MX,1707243515
517,carnarvon,-24.8667,113.6333,82.42,52,2,20.42,AU,1707243515
518,saham,24.1722,56.8886,70.95,40,99,12.21,OM,1707243515
519,wabag,-5.4781,143.7021,55.11,98,100,1.54,PG,1707243516
520,aral,40.5156,81.2636,28.76,54,30,3.13,CN,1707243516
521,ulverstone,-41.15,146.1667,46.72,92,0,8.34,AU,1707243516
522,ushtobe,45.2514,77.9838,20.82,83,84,5.59,KZ,1707243516
523,harjavalta,61.3167,22.1333,11.93,99,77,4.05,FI,1707243516
524,las khorey,11.1595,48.1967,78.22,77,12,8.88,SO,1707243516
525,tosontsengel,48.7567,98.2839,-18.18,98,81,0.22,MN,1707243516
526,al khaburah,23.9886,57.0984,71.01,41,97,10.49,OM,1707243516
527,tagab,34.855,69.6492,35.06,51,78,5.88,AF,1707243517
528,conception bay south,47.4999,-52.9981,34.05,97,100,31.61,CA,1707243327
529,turkeve,47.1,20.75,53.06,61,93,14.72,HU,1707243517
530,gorontalo,0.5412,123.0595,74.62,95,100,3.76,ID,1707243517
531,narvik,68.4384,17.4272,20.8,95,99,3.87,NO,1707243517
532,helena valley west central,46.6629,-112.0604,39.15,88,100,4.61,US,1707243517
533,gennep,51.6983,5.9736,54.09,78,100,21.85,NL,1707243517
534,padang,-0.9492,100.3543,80.65,90,98,2.71,ID,1707243517
535,arroyo,41.6096,-4.7969,56.21,60,20,5.75,ES,1707243517
536,krasnyy chikoy,50.3643,108.7512,-4.77,100,48,1.3,RU,1707243518
537,abocho,7.5677,6.9863,83.8,13,98,6.24,NG,1707243518
538,tome acu,-2.4189,-48.1522,87.96,61,57,4.32,BR,1707243518
539,palafrugell,41.9174,3.1631,53.62,52,100,3.89,ES,1707243518
540,azul,-36.777,-59.8585,104.0,22,46,10.2,AR,1707243518
541,island harbour,50.724,-1.2758,55.47,90,100,17.0,GB,1707243518
542,moyo,3.6609,31.7247,82.0,35,76,3.4,UG,1707243518
543,inarajan village,13.2736,144.7484,78.4,74,100,13.6,GU,1707243518
544,parapat,2.663,98.9349,69.37,91,66,0.18,ID,1707243519
545,rainbow city,33.9548,-86.0419,62.91,40,0,4.61,US,1707243386
546,columbia falls,48.3725,-114.1815,36.41,93,100,0.0,US,1707243519
547,anatuya,-28.4606,-62.8347,108.34,18,43,8.01,AR,1707243519
548,taltal,-25.4,-70.4833,69.62,86,20,7.65,CL,1707243519
549,kurchatov,51.6601,35.6521,28.81,95,100,6.55,RU,1707243519
550,chernyshevskiy,63.0128,112.4714,-6.56,100,99,3.0,RU,1707243519
551,jiuquan,39.7432,98.5174,17.71,86,99,1.25,CN,1707243519
552,callao,-12.0667,-77.15,88.09,48,0,17.27,PE,1707243520
553,batang,-6.4846,110.7083,77.52,92,100,5.06,ID,1707243520
554,oranjemund,-28.55,16.4333,68.97,82,67,8.03,NA,1707243520
555,seeb,23.6703,58.1891,73.49,40,0,5.75,OM,1707243437
556,hampton bays,40.869,-72.5176,41.0,65,0,11.01,US,1707243501
557,haiku-pauwela,20.9219,-156.3051,71.04,71,0,10.0,US,1707243487
558,nishinoomote,30.7333,131.0,57.07,64,100,12.82,JP,1707243411
559,uyuni,-20.4597,-66.825,56.43,50,99,5.95,BO,1707243520
560,funadhoo,6.15,73.2667,81.63,75,59,13.29,MV,1707243520
561,bo rai,12.5728,102.5371,75.0,96,3,2.24,TH,1707243521
562,neiafu,-18.65,-173.9833,74.08,94,40,0.0,TO,1707243521
563,smithers,54.7804,-127.1743,23.32,93,100,2.3,CA,1707243313
564,monrovia,6.3005,-10.7969,83.71,73,2,12.39,LR,1707243521
565,ilhabela,-23.7781,-45.3581,83.23,71,95,5.86,BR,1707243466
566,mont-dore,-22.2833,166.5833,82.0,99,100,10.63,NC,1707243521
567,charters towers,-20.1,146.2667,76.5,91,55,6.22,AU,1707243521
568,tucuma,-0.1833,-50.05,84.24,78,50,9.28,BR,1707243324
