City_ID,City,Lat,Lng,Max Temp,Humidity,Cloudiness,Wind Speed,Country,Date
0,holualoa,19.6228,-155.9522,75.04,81,75,11.5,US,1707180785
1,west island,-12.1568,96.8225,82.38,83,40,6.91,CC,1707180516
2,afaahiti,-17.75,-149.2833,75.07,93,100,23.13,PF,1707180592
3,tiksi,71.6872,128.8694,-25.51,97,97,3.49,RU,1707180785
4,grytviken,-54.2811,-36.5092,42.93,84,20,16.37,GS,1707180544
5,newman,37.3138,-121.0208,57.15,78,99,4.0,US,1707180785
6,yellowknife,62.456,-114.3525,-10.68,77,20,0.0,CA,1707180713
7,thompson,55.7435,-97.8558,28.56,100,100,5.75,CA,1707180714
8,petropavlovsk-kamchatsky,53.0452,158.6483,18.19,49,75,2.24,RU,1707180785
9,ribeira grande,38.5167,-28.7,63.77,93,100,14.0,PT,1707180490
10,blackmans bay,-43.0167,147.3167,63.73,46,79,1.01,AU,1707180786
11,ushuaia,-54.8,-68.3,51.46,54,0,9.22,AR,1707180786
12,hotan,37.0997,79.9269,24.4,89,97,3.33,CN,1707180786
13,port saint john's,-31.6229,29.5448,72.57,92,0,5.88,ZA,1707180540
14,puerto natales,-51.7236,-72.4875,48.6,75,100,1.57,CL,1707180786
15,timmins,48.4669,-81.3331,28.22,86,100,3.44,CA,1707180556
16,newtown,-33.8984,151.1775,77.18,83,75,23.02,AU,1707180786
17,conde,-7.2597,-34.9075,81.86,83,20,6.91,BR,1707180786
18,enewetak,11.3474,162.3373,79.95,72,98,15.97,MH,1707180543
19,hammerfest,70.6634,23.6821,13.86,88,88,8.28,NO,1707180787
20,maintirano,-18.0667,44.0167,80.44,82,50,3.8,MG,1707180787
21,bhinmal,25.0,72.25,62.46,61,56,5.59,IN,1707180787
22,trincomalee,8.5711,81.2335,78.93,71,31,11.45,LK,1707180787
23,bredasdorp,-34.5322,20.0403,70.0,81,100,3.33,ZA,1707180787
24,angaur state,6.906,134.13,81.23,83,100,16.28,PW,1707180787
25,edinburgh of the seven seas,-37.0676,-12.3116,60.08,62,0,2.04,SH,1707180787
26,galliano,29.4422,-90.2992,55.4,78,89,10.78,US,1707180788
27,adamstown,-25.066,-130.1015,75.67,81,100,11.34,PN,1707180788
28,eyl,7.9803,49.8164,75.16,72,69,12.08,SO,1707180688
29,colonia del sacramento,-34.4667,-57.85,77.13,78,9,23.58,UY,1707180788
30,sauteurs,12.2167,-61.6333,81.3,86,22,20.54,GD,1707180788
31,hermanus,-34.4187,19.2345,70.81,88,100,5.03,ZA,1707180542
32,talnakh,69.4865,88.3972,-12.69,89,33,5.41,RU,1707180788
33,stanley,54.868,-1.6985,50.77,86,100,21.56,GB,1707180788
34,taroa,8.7058,171.2275,81.36,78,100,17.6,MH,1707180789
35,waitangi,-43.9535,-176.5597,66.81,86,90,18.39,NZ,1707180789
36,port-aux-francais,-49.35,70.2167,43.11,74,100,28.7,TF,1707180703
37,nguigmi,14.2495,13.1092,64.51,25,2,15.99,NE,1707180789
38,ust-nera,64.5667,143.2,-15.47,84,98,1.7,RU,1707180715
39,iskateley,67.6803,53.1512,-1.98,97,100,4.0,RU,1707180789
40,ashburton,-37.8626,145.0794,71.92,46,2,3.0,AU,1707180789
41,vuktyl,63.8567,57.3094,2.1,93,100,5.99,RU,1707180789
42,albany,42.6001,-73.9662,29.35,50,1,1.01,US,1707180695
43,taltal,-25.4,-70.4833,70.95,82,0,3.31,CL,1707180789
44,galveston,29.3669,-94.9669,62.71,65,0,11.5,US,1707180790
45,hasaki,35.7333,140.8333,39.29,78,100,24.29,JP,1707180506
46,itoman,26.1247,127.6694,65.17,65,75,13.8,JP,1707180790
47,olonkinbyen,70.9221,-8.7187,29.01,70,77,15.35,SJ,1707180790
48,fort bragg,35.139,-79.006,49.5,47,0,5.75,US,1707180579
49,whitehorse,60.7161,-135.0538,-3.23,92,100,3.44,CA,1707180763
50,anadyr,64.75,177.4833,-8.9,77,100,15.66,RU,1707180790
51,aasiaat,68.7098,-52.8699,-21.5,87,69,8.43,GL,1707180491
52,soledad,10.9184,-74.7646,78.93,89,20,2.3,CO,1707180701
53,tequixquiac,19.9081,-99.1475,57.67,31,0,8.32,MX,1707180791
54,eirunepe,-6.6603,-69.8736,73.92,98,38,0.49,BR,1707180791
55,margaret river,-33.95,115.0667,66.72,50,8,7.56,AU,1707180549
56,pombas,17.1503,-25.0201,69.58,62,0,8.57,CV,1707180791
57,kapuskasing,49.4169,-82.4331,26.69,93,100,5.75,CA,1707180791
58,hazard,37.2495,-83.1932,56.89,79,0,3.96,US,1707180791
59,kingston,17.997,-76.7936,78.21,94,75,10.36,JM,1707180791
60,vorgashor,67.5833,63.95,-11.22,97,92,6.26,RU,1707180505
61,puerto ayora,-0.7393,-90.3518,78.55,95,73,3.0,EC,1707180791
62,kolpashevo,58.3131,82.9089,21.11,86,100,13.0,RU,1707180792
63,qaqortoq,60.7167,-46.0333,-6.48,70,0,6.24,GL,1707180575
64,wailua homesteads,22.0669,-159.378,79.23,70,100,20.71,US,1707180499
65,kodiak,57.79,-152.4072,38.71,60,0,16.11,US,1707180531
66,melekhovo,56.2773,41.2935,10.72,99,99,3.0,RU,1707180792
67,port alfred,-33.5906,26.891,66.18,97,50,5.01,ZA,1707180792
68,badger,64.8,-147.5333,6.71,78,40,3.44,US,1707180792
69,tamandare,-8.7597,-35.1047,79.18,81,24,4.88,BR,1707180792
70,isafjordur,66.0755,-23.124,16.74,77,99,12.08,IS,1707180793
71,papatowai,-46.5619,169.4708,63.59,80,100,5.79,NZ,1707180503
72,port lincoln,-34.7333,135.8667,65.91,50,0,11.99,AU,1707180621
73,hawaiian paradise park,19.5933,-154.9731,76.03,72,75,8.05,US,1707180718
74,hithadhoo,-0.6,73.0833,82.62,74,100,8.12,MV,1707180793
75,coracora,-15.0333,-73.7833,53.01,90,98,5.08,PE,1707180793
76,tadine,-21.55,167.8833,81.27,76,100,18.84,NC,1707180793
77,flying fish cove,-10.4217,105.6791,76.68,100,92,2.3,CX,1707180793
78,simpang,-1.2667,104.0833,77.67,92,100,2.82,ID,1707180793
79,cidreira,-30.1811,-50.2056,75.47,87,100,11.61,BR,1707180551
80,taro,-8.3862,115.28,77.0,77,52,3.0,ID,1707180794
81,gadzhiyevo,69.2551,33.3362,-3.84,100,100,8.03,RU,1707180562
82,college,64.8569,-147.8028,6.8,73,40,3.44,US,1707180794
83,avarua,-21.2078,-159.775,86.05,74,20,19.57,CK,1707180578
84,carnarvon,-24.8667,113.6333,86.88,30,8,24.58,AU,1707180582
85,saipan,15.1355,145.701,81.3,65,75,13.8,MP,1707180794
86,bardai,11.65,7.2333,62.02,17,11,14.36,NG,1707180794
87,tympaki,35.0729,24.7685,57.22,62,0,6.55,GR,1707180794
88,taybad,34.74,60.7756,43.0,38,0,11.65,IR,1707180794
89,mirnyy,62.5353,113.9611,5.85,97,100,1.79,RU,1707180794
90,baotou,40.6522,109.8222,7.56,87,11,5.06,CN,1707180794
91,ayr,55.4627,-4.6339,49.98,93,75,27.63,GB,1707180795
92,la'ie,21.6477,-157.9253,80.56,63,29,8.99,US,1707180771
93,el granada,37.5027,-122.4694,58.68,79,75,8.05,US,1707180795
94,dudinka,69.4058,86.1778,-13.32,97,59,4.0,RU,1707180755
95,mahanoro,-19.9,48.8,75.65,83,100,2.37,MG,1707180795
96,breves,-1.6822,-50.4803,77.74,85,96,4.83,BR,1707180795
97,bethel,41.3712,-73.414,34.93,49,0,1.01,US,1707180641
98,tura,25.5198,90.2201,57.9,61,82,2.64,IN,1707180505
99,colonia,50.9333,6.95,50.05,77,100,12.66,DE,1707180796
100,bilibino,68.0546,166.4372,-27.74,99,100,1.95,RU,1707180796
101,port elizabeth,-33.918,25.5701,72.1,93,100,9.22,ZA,1707180796
102,noosa heads,-26.3833,153.15,87.12,67,39,6.46,AU,1707180796
103,chaumont,48.1167,5.1333,40.37,90,100,10.69,FR,1707180796
104,bafq,31.6128,55.4107,45.48,19,0,7.99,IR,1707180796
105,pundong,-7.9522,110.3486,77.59,87,100,3.04,ID,1707180796
106,mstsislaw,54.0192,31.7257,20.16,95,77,10.02,BY,1707180796
107,vila franca do campo,37.7167,-25.4333,64.89,99,97,12.41,PT,1707180797
108,moulins,46.5,3.3333,39.47,98,92,2.62,FR,1707180797
109,vanimo,-2.6741,141.3028,84.25,77,100,7.05,PG,1707180797
110,kapa'a,22.0752,-159.319,80.58,69,100,20.71,US,1707180797
111,port mathurin,-19.6833,63.4167,78.98,64,93,14.34,MU,1707180797
112,rio preto da eva,-2.6994,-59.6997,76.59,93,85,1.7,BR,1707180797
113,tanjungagung,-3.9333,103.8,75.31,97,100,1.41,ID,1707180797
114,tabuk,17.4189,121.4443,77.79,75,53,5.01,PH,1707180797
115,punta arenas,-53.15,-70.9167,53.71,58,75,14.97,CL,1707180798
116,boves,44.332,7.5514,46.63,54,96,1.83,IT,1707180798
117,kurumkan,54.3,110.3,-2.87,88,100,4.0,RU,1707180798
118,morehead city,34.7229,-76.726,48.24,68,75,11.99,US,1707180583
119,notodden,59.5594,9.2585,16.75,80,100,4.18,NO,1707180798
120,trairi,-3.2778,-39.2689,81.39,78,69,11.68,BR,1707180604
121,banlung,13.7468,107.0045,76.64,57,0,3.47,KH,1707180819
122,hamilton,39.1834,-84.5333,44.24,74,0,14.97,US,1707180708
123,utrik,11.2278,169.8474,79.54,82,38,20.0,MH,1707180820
124,waitara,-38.925,174.25,77.49,70,4,8.12,NZ,1707180744
125,damghan,36.1683,54.348,33.76,70,100,1.57,IR,1707180820
126,mount gambier,-37.8333,140.7667,67.68,39,0,9.01,AU,1707180767
127,hadibu,12.65,54.0333,75.31,76,3,5.64,YE,1707180622
128,shimoda,34.6667,138.95,44.96,96,100,14.18,JP,1707180820
129,khanty-mansiysk,61.0042,69.0019,12.31,79,75,2.24,RU,1707180820
130,aykhal,66.0,111.5,-5.48,99,100,5.82,RU,1707180551
131,longyearbyen,78.2186,15.6401,24.64,74,40,16.11,SJ,1707180820
132,ugoofaaru,5.6667,73.0,82.27,72,49,14.83,MV,1707180821
133,forster,-32.1667,152.5167,86.38,70,8,9.46,AU,1707180556
134,chonchi,-42.6128,-73.8092,65.41,81,100,2.08,CL,1707180821
135,ahlerstedt,53.4,9.45,48.78,84,100,22.66,DE,1707180821
136,nyurba,63.2842,118.3319,-11.85,99,100,1.95,RU,1707180551
137,opoczno,51.3757,20.2783,46.96,76,100,22.32,PL,1707180821
138,sao bento,-6.2833,-37.75,76.24,72,30,6.06,BR,1707180821
139,westport,41.1415,-73.3579,37.22,42,0,12.66,US,1707180821
140,sao jose da coroa grande,-8.8978,-35.1478,79.29,82,16,5.12,BR,1707180821
141,island harbour,50.724,-1.2758,53.04,90,100,11.99,GB,1707180708
142,lompoc,34.6391,-120.4579,58.89,80,100,5.75,US,1707180783
143,san fernando de monte cristi,19.8667,-71.65,78.24,77,10,11.05,DO,1707180822
144,kerikeri,-35.2268,173.9474,74.95,55,35,8.3,NZ,1707180822
145,visby,57.6409,18.296,30.42,74,97,4.61,SE,1707180822
146,cobija,-11.0267,-68.7692,76.91,75,6,1.66,BO,1707180822
147,iqaluit,63.7506,-68.5145,1.13,77,75,3.44,CA,1707180704
148,kalmunai,7.4167,81.8167,78.04,75,100,9.46,LK,1707180735
149,pariaman,-0.619,100.12,80.65,80,99,3.31,ID,1707180822
150,mityana,0.4175,32.0228,62.11,88,12,1.39,UG,1707180822
151,palmer,42.1584,-72.3287,33.62,50,0,6.91,US,1707180822
152,nadym,65.5333,72.5167,-3.33,96,100,13.91,RU,1707180823
153,illizi,26.4833,8.4667,48.0,40,0,10.71,DZ,1707180823
154,richards bay,-28.783,32.0377,71.28,90,32,2.44,ZA,1707180823
155,aljezur,37.3191,-8.8033,55.63,78,100,2.77,PT,1707180823
156,constantia,44.1833,28.65,47.08,78,75,16.51,RO,1707180712
157,aban,56.67,96.06,5.72,95,89,4.36,RU,1707180823
158,atafu village,-8.5421,-172.5159,82.58,82,100,30.89,TK,1707180823
159,iisalmi,63.5592,27.1907,1.02,99,88,3.02,FI,1707180823
160,dunedin,-45.8742,170.5036,67.24,63,100,2.51,NZ,1707180325
161,lihue,21.9789,-159.3672,79.84,68,100,20.71,US,1707180823
162,perelyub,51.8667,50.3667,31.91,97,100,18.75,RU,1707180824
163,askiz,53.1319,90.5264,3.56,95,73,3.15,RU,1707180824
164,klyuchi,52.2667,79.1667,15.35,90,92,9.33,RU,1707180566
165,nizhniy odes,63.6445,54.856,1.8,96,100,6.35,RU,1707180824
166,kabare,-2.4683,28.8242,61.56,92,83,0.83,CD,1707180824
167,invercargill,-46.4,168.35,66.02,91,100,5.99,NZ,1707180824
168,fort st. john,56.2499,-120.8529,21.09,68,75,6.91,CA,1707180734
169,portland,45.5234,-122.6762,49.84,92,100,11.5,US,1707180296
170,shiguai,40.7058,110.2856,6.4,87,5,5.5,CN,1707180824
171,bengkulu,-3.8004,102.2655,77.61,88,100,3.67,ID,1707180796
172,olyokminsk,60.3736,120.4264,-4.72,92,100,2.17,RU,1707180825
173,sinabang,2.4803,96.3801,80.98,80,73,2.82,ID,1707180825
174,udachny,66.4167,112.4,-10.55,76,100,3.4,RU,1707180825
175,sao joao da barra,-21.6403,-41.0511,78.89,90,100,10.89,BR,1707180825
176,salamanca,40.8333,-6.0,43.0,86,100,2.98,ES,1707180825
177,yinchuan,38.4681,106.2731,20.34,64,100,4.25,CN,1707180825
178,gaspe,48.8334,-64.4819,26.82,86,100,9.22,CA,1707180825
179,richmond,37.5538,-77.4603,45.05,58,0,9.22,US,1707180709
180,l'govskiy,51.6307,35.2775,24.55,90,87,13.69,RU,1707180825
181,harper,4.375,-7.7169,80.71,79,8,4.7,LR,1707180826
182,saint-philippe,-21.3585,55.7679,71.19,77,72,8.3,RE,1707180538
183,luderitz,-26.6481,15.1594,64.85,89,6,4.9,NA,1707180826
184,keflavik,64.0049,-22.5624,19.83,73,75,20.71,IS,1707180826
185,praia da vitoria,38.7333,-27.0667,64.65,77,40,17.98,PT,1707180826
186,nizhneudinsk,54.9076,99.0276,12.6,90,95,4.0,RU,1707180718
187,port moresby,-9.4431,147.1797,89.02,62,20,9.22,PG,1707180826
188,yung shue wan,22.2333,114.1167,67.75,81,100,18.54,HK,1707180826
189,karratha,-20.7377,116.8463,86.7,49,98,7.58,AU,1707180826
190,vikhorevka,56.1201,101.1636,11.79,98,100,3.91,RU,1707180826
191,kuala terengganu,5.3302,103.1408,76.95,94,40,2.3,MY,1707180827
192,la romana,18.4273,-68.9728,79.16,94,40,5.75,DO,1707180827
193,kudahuvadhoo,2.6708,72.8944,81.79,81,39,15.48,MV,1707180827
194,greymouth,-42.4667,171.2,67.35,67,76,8.72,NZ,1707180827
195,paita,-5.0892,-81.1144,76.71,86,47,10.85,PE,1707180827
196,mariental,-24.6333,17.9667,83.46,23,51,16.2,NA,1707180827
197,vadso,70.0744,29.7487,15.96,86,20,12.66,NO,1707180552
198,gambiran satu,-8.3939,114.1464,79.59,85,100,1.59,ID,1707180827
199,muroto-misakicho,33.2833,134.15,50.45,62,28,9.48,JP,1707180828
200,ilulissat,69.2167,-51.1,-5.78,54,10,4.61,GL,1707180828
201,xiaoweizhai,26.1903,107.5125,33.73,93,100,4.38,CN,1707180828
202,tidjikja,18.5564,-11.4271,66.96,9,4,15.43,MR,1707180828
203,tofol,5.3248,163.0078,85.78,70,75,13.8,FM,1707180828
204,dayr mawas,27.6418,30.8466,52.21,63,0,7.96,EG,1707180828
205,queenstown,-31.8976,26.8753,62.62,83,0,1.39,ZA,1707180829
206,sabratah,32.7933,12.4885,56.79,48,0,10.16,LY,1707180829
207,kailua-kona,19.6406,-155.9956,78.76,82,75,11.5,US,1707180829
208,concepcion del oro,24.6333,-101.4167,53.58,26,0,7.45,MX,1707180829
209,phan rang-thap cham,11.5667,108.9833,78.91,65,22,5.57,VN,1707180829
210,minas de marcona,-15.2119,-75.1103,68.34,83,81,7.99,PE,1707180718
211,sernur,56.9333,49.1536,12.34,97,100,7.05,RU,1707180829
212,kachug,53.9606,105.8817,-1.95,99,100,1.01,RU,1707180829
213,georgetown,5.4112,100.3354,81.95,87,20,2.3,MY,1707180691
214,kone,-21.0595,164.8658,80.94,87,100,5.97,NC,1707180829
215,mana,5.6592,-53.7767,79.21,86,60,10.54,GF,1707180718
216,otra banda,18.6502,-68.6628,78.28,92,100,12.46,DO,1707180829
217,urucara,-2.5364,-57.76,78.67,81,98,3.02,BR,1707180830
218,twon-brass,4.3151,6.2418,81.54,78,97,3.49,NG,1707180830
219,pointe-noire,-4.7761,11.8635,77.07,88,20,3.44,CG,1707180830
220,arica,-18.475,-70.3042,81.95,69,0,5.75,CL,1707180830
221,okhotsk,59.3833,143.3,-6.97,81,76,12.62,RU,1707180830
222,gisborne,-38.6533,178.0042,78.87,50,0,9.64,NZ,1707180759
223,wotho,10.1657,166.0102,80.47,80,25,19.04,MH,1707180830
224,kavieng,-2.5744,150.7967,83.57,77,59,6.62,PG,1707180830
225,bayganin,48.6947,55.8742,33.35,87,100,16.58,KZ,1707180831
226,tacna,-18.0056,-70.2483,75.4,61,40,10.36,PE,1707180831
227,al kharj,24.155,47.3346,57.78,43,100,4.56,SA,1707180831
228,padang,-0.9492,100.3543,80.65,80,100,2.8,ID,1707180831
229,qui nhon,13.7667,109.2333,75.07,83,22,4.76,VN,1707180831
230,nemuro,43.3236,145.575,19.4,70,69,11.52,JP,1707180757
231,prokop'yevsk,53.9059,86.719,9.14,91,81,4.5,RU,1707180831
232,kalabo,-14.97,22.6814,69.82,83,86,3.29,ZM,1707180831
233,kamaishi,39.2667,141.8833,35.64,59,100,8.66,JP,1707180832
234,ghardaia,32.4909,3.6735,51.15,46,0,3.44,DZ,1707180832
235,inhambane,-23.865,35.3833,75.67,88,16,1.05,MZ,1707180832
236,vila velha,-20.3297,-40.2925,80.55,90,40,9.22,BR,1707180832
237,alo,7.4178,6.7371,77.5,18,100,3.4,NG,1707180832
238,pontevedra,42.431,-8.6444,52.14,86,100,1.9,ES,1707180767
239,pudozh,61.8099,36.5345,-7.47,98,98,5.84,RU,1707180832
240,arraial do cabo,-22.9661,-42.0278,76.96,88,40,4.61,BR,1707180832
241,untsukul',42.7115,46.7866,32.9,62,89,7.49,RU,1707180832
242,deogarh,21.5333,84.7333,62.98,81,0,1.81,IN,1707180832
243,codrington,-38.2667,141.9667,65.48,45,0,12.75,AU,1707180533
244,sitka,57.0531,-135.33,40.89,75,40,4.61,US,1707180766
245,steinbach,50.1667,8.5667,46.63,78,100,13.8,DE,1707180833
246,santo antonio,-6.3106,-35.4789,77.92,82,50,5.59,BR,1707180833
247,mermoz boabab,14.7065,-17.4758,75.76,83,0,9.22,SN,1707180833
248,fale old settlement,-9.3852,-171.2468,83.64,81,100,27.87,TK,1707180727
249,yigo village,13.5361,144.8886,82.13,65,0,19.57,GU,1707180833
250,sarai,53.7458,41.0213,23.27,94,100,10.67,RU,1707180833
251,heroica caborca,30.7167,-112.15,72.25,28,99,9.75,MX,1707180833
252,weno,7.4515,151.8468,85.95,66,40,14.97,FM,1707180833
253,isfara,40.1265,70.6253,33.69,44,100,2.95,TJ,1707180833
254,la passe,45.5549,-0.8967,44.98,87,100,5.82,FR,1707180834
255,bogale,16.2833,95.4,68.43,76,0,4.74,MM,1707180834
256,lerwick,60.1545,-1.1494,39.2,96,100,25.7,GB,1707180831
257,east london,-33.0153,27.9116,72.46,84,6,4.36,ZA,1707180834
258,yoko,5.5333,12.3167,67.19,22,100,4.88,CM,1707180834
259,vilyuchinsk,52.9306,158.4028,19.67,70,72,6.69,RU,1707180834
260,gebeit,21.0667,36.3167,54.41,71,100,3.51,SD,1707180834
261,akrehamn,59.2667,5.1833,33.42,74,100,9.22,NO,1707180834
262,lebu,-37.6167,-73.65,61.75,93,98,5.03,CL,1707180575
263,lamu,-2.2717,40.902,79.43,85,97,10.0,KE,1707180745
264,rio grande,-32.035,-52.0986,77.11,84,100,13.35,BR,1707180759
265,al qusiyah,27.4402,30.8184,50.27,62,0,7.87,EG,1707180835
266,carutapera,-1.195,-46.02,78.82,88,90,6.58,BR,1707180835
267,qamdo,31.1667,97.2333,18.05,45,80,8.43,CN,1707180835
268,mangrol,21.1167,70.1167,70.12,85,0,9.91,IN,1707180835
269,vangaindrano,-23.35,47.6,74.39,90,100,6.53,MG,1707180835
270,san antonio de pale,-1.4014,5.6325,81.93,75,100,3.44,GQ,1707180737
271,ancud,-41.8697,-73.8203,58.05,93,100,6.24,CL,1707180623
272,amal,59.051,12.7049,21.04,88,96,3.89,SE,1707180835
273,igarka,67.4667,86.5833,-14.78,97,73,5.84,RU,1707180835
274,jucas,-6.5253,-39.5275,82.24,45,26,6.46,BR,1707180835
275,arteche,12.2645,125.4048,80.08,81,100,12.21,PH,1707180748
276,vilyuysk,63.7553,121.6247,-36.99,100,94,3.0,RU,1707180836
277,thunder bay,48.4001,-89.3168,33.78,93,75,5.75,CA,1707180556
278,bridgewater,44.3835,-64.5155,33.48,83,95,10.36,CA,1707180467
279,manaure,11.7751,-72.4445,79.92,84,59,5.66,CO,1707180836
280,barra de santo antonio,-9.4047,-35.5072,79.88,82,28,5.1,BR,1707180836
281,abong mbang,3.9833,13.1833,67.26,39,32,3.27,CM,1707180836
282,bac lieu,9.285,105.7244,79.86,79,56,7.83,VN,1707180836
283,happy valley-goose bay,53.3168,-60.3315,8.91,78,75,10.36,CA,1707180732
284,korets,50.6165,27.1605,34.03,96,100,9.08,UA,1707180836
285,mount pearl,47.5166,-52.7813,33.96,98,100,20.71,CA,1707180712
286,kupiskis,55.8333,24.9667,26.29,91,69,8.21,LT,1707180837
287,gunjur,13.2019,-16.7339,77.07,47,0,5.75,GM,1707180837
288,jamestown,42.097,-79.2353,30.52,90,40,8.05,US,1707180742
289,hoemul-li,41.4339,129.67,25.52,57,100,2.04,KP,1707180837
290,sainte-anne-des-monts,49.124,-66.4924,28.27,80,100,18.41,CA,1707180566
291,barcelos,41.5388,-8.6151,52.92,88,100,2.13,PT,1707180837
292,mount isa,-20.7333,139.5,91.17,58,100,8.05,AU,1707180624
293,siwa oasis,29.2041,25.5195,54.12,61,0,5.39,EG,1707180837
294,ardestan,33.3761,52.3694,41.67,37,100,7.67,IR,1707180837
295,coquimbo,-29.9533,-71.3436,65.93,88,20,6.91,CL,1707180564
296,hirara,24.8,125.2833,64.67,72,75,16.11,JP,1707180838
297,la foa,-21.7108,165.8276,85.15,68,100,6.73,NC,1707180838
298,haiku-pauwela,20.9219,-156.3051,77.04,65,20,19.57,US,1707180551
299,dwarka,22.2394,68.9678,71.85,75,0,5.68,IN,1707180838
300,new norfolk,-42.7826,147.0587,64.92,32,65,7.7,AU,1707180718
301,zaozersk,69.4005,32.4476,-2.47,100,100,4.54,RU,1707180838
302,san fernando,15.0286,120.6898,80.33,59,9,7.83,PH,1707180838
303,sawang daen din,17.4753,103.4575,75.88,27,0,3.29,TH,1707180838
304,belmonte,-15.8631,-38.8828,78.1,87,14,5.68,BR,1707180838
305,tahoua,14.8888,5.2692,66.18,15,100,12.66,NE,1707180838
306,tubarjal,30.4999,38.216,47.03,64,0,5.95,SA,1707180839
307,lorengau,-2.0226,147.2712,85.57,73,100,11.12,PG,1707180839
308,de aar,-30.6497,24.0123,72.77,41,0,9.8,ZA,1707180839
309,christchurch,-43.5333,172.6333,87.53,24,92,6.91,NZ,1707180723
310,pangkalanbuun,-2.6833,111.6167,80.85,84,100,3.98,ID,1707180839
311,selfoss,63.9331,-20.9971,7.29,87,4,9.46,IS,1707180752
312,lubango,-14.9172,13.4925,63.12,89,100,1.34,AO,1707180839
313,saint-pierre,-21.3393,55.4781,71.28,68,0,4.61,RE,1707180794
314,cabo san lucas,22.8909,-109.9124,81.7,34,20,11.5,MX,1707180468
315,tulun,54.5611,100.5792,-3.82,99,98,4.09,RU,1707180839
316,kruisfontein,-34.0033,24.7314,69.89,90,50,9.17,ZA,1707180840
317,gamay,12.3854,125.2979,80.51,80,100,10.87,PH,1707180840
318,tsiombe,-25.3,45.4833,71.96,93,15,6.15,MG,1707180840
319,estes park,40.3772,-105.5217,32.31,74,10,7.7,US,1707180840
320,maitum,6.0392,124.4986,76.84,89,100,2.66,PH,1707180840
321,gaalkacyo,6.7697,47.4308,72.79,67,96,10.25,SO,1707180840
322,st. john's,47.5649,-52.7093,34.79,97,100,21.0,CA,1707180828
323,chernyshevskiy,63.0128,112.4714,-0.69,99,100,1.5,RU,1707180569
324,long beach,33.767,-118.1892,56.97,97,100,4.0,US,1707180840
325,atar,20.5169,-13.0499,65.97,11,67,11.86,MR,1707180840
326,bamboo flat,11.7,92.7167,69.89,94,7,0.0,IN,1707180841
327,mwingi,-0.9344,38.0601,67.33,73,6,2.73,KE,1707180841
328,ploneour-lanvern,47.9,-4.2833,53.89,82,100,9.22,FR,1707180841
329,lata,40.1629,-8.3327,51.93,89,100,0.56,PT,1707180841
330,sidareja,-7.4846,108.7923,79.43,90,95,1.07,ID,1707180841
331,campos altos,-19.6961,-46.1714,64.94,91,100,0.4,BR,1707180841
332,sa'dah,16.9402,43.7639,55.36,91,11,3.42,YE,1707180841
333,bima,-8.4667,118.7167,84.58,71,35,2.01,ID,1707180841
334,kingscliff,-28.2667,153.5667,89.94,65,40,9.22,AU,1707180841
335,axim,4.8699,-2.2405,78.67,91,5,3.83,GH,1707180842
336,batticaloa,7.7102,81.6924,79.21,69,81,8.84,LK,1707180842
337,donggang,28.9365,114.2259,33.96,99,100,2.06,CN,1707180842
338,remire-montjoly,4.9167,-52.2667,80.64,89,40,2.3,GF,1707180842
339,breckenridge,32.7557,-98.9023,55.6,58,0,6.2,US,1707180842
340,kismayo,-0.3582,42.5454,79.7,84,50,12.46,SO,1707180842
341,cold lake,54.4502,-110.2017,22.95,86,100,4.61,CA,1707180842
342,san miguel,13.4833,-88.1833,78.84,75,72,2.77,SV,1707180842
343,graaff-reinet,-32.2522,24.5308,72.37,55,0,2.17,ZA,1707180843
344,nar'yan-mar,67.6713,53.087,-1.89,97,100,4.0,RU,1707180723
345,nelson,-41.2833,173.2833,76.78,45,22,6.33,NZ,1707180806
346,jacobina,-11.1806,-40.5183,71.02,92,100,3.04,BR,1707180843
347,grande prairie,55.1667,-118.8027,21.38,73,100,8.05,CA,1707180843
348,nazarovo,56.0064,90.3914,9.63,95,23,4.0,RU,1707180587
349,casper,42.8666,-106.3131,40.71,76,100,34.52,US,1707180843
350,recani,31.2846,-4.2688,47.84,38,12,4.18,MA,1707180843
351,san patricio,28.017,-97.5169,62.55,73,0,7.67,US,1707180843
352,yuzhno-kurilsk,44.0306,145.8556,21.38,60,69,12.86,RU,1707180724
353,al jawf,29.5,38.75,45.73,58,0,8.68,SA,1707180844
354,nuuk,64.1835,-51.7216,9.21,78,100,12.66,GL,1707180827
355,krasnokuts'k,50.066,35.1628,29.05,87,93,17.52,UA,1707180844
356,mancio lima,-7.6142,-72.8958,74.43,95,17,3.49,BR,1707180844
357,uthal,25.8072,66.6219,67.06,78,100,2.98,PK,1707180844
358,mili,6.0815,171.735,81.41,74,100,13.62,MH,1707180844
359,massawa,15.6097,39.45,74.98,78,100,11.12,ER,1707180844
360,susuman,62.7833,148.1667,-20.02,89,100,3.0,RU,1707180568
361,gbadolite,4.2833,21.0167,73.74,38,72,1.83,CD,1707180844
362,guanica,17.9716,-66.908,83.37,71,68,9.86,PR,1707180844
363,nogliki,51.8333,143.1667,1.99,89,26,7.63,RU,1707180845
364,rosarito,32.3333,-117.0333,58.48,84,100,12.82,MX,1707180845
365,bol'sherech'ye,56.0925,74.6272,27.77,92,99,16.8,RU,1707180845
366,tolanaro,-25.0319,46.9987,75.27,88,75,13.8,MG,1707180845
367,howrah,22.5892,88.3103,69.8,94,75,4.61,IN,1707180845
368,peace river,56.2501,-117.286,25.11,54,100,5.75,CA,1707180795
369,amga,60.8953,131.9608,-21.82,99,98,1.12,RU,1707180845
370,nagqu,31.5,92.0,14.56,15,83,13.98,CN,1707180845
371,broken hill,-31.95,141.4333,71.89,32,5,21.63,AU,1707180845
372,nova sintra,14.8667,-24.7167,69.75,68,0,16.84,CV,1707180846
373,bubaque,11.2833,-15.8333,79.43,73,0,8.08,GW,1707180736
374,san luis de la loma,17.2706,-100.8939,76.23,80,12,2.53,MX,1707180846
375,berezovyy,51.6667,135.7,2.82,74,2,1.23,RU,1707180846
376,howard springs,-12.497,131.047,90.88,79,24,8.46,AU,1707180846
377,michurinsk,52.8978,40.4907,24.24,94,100,9.69,RU,1707180846
378,ixtapa,20.7,-105.2,76.23,74,0,1.99,MX,1707180846
379,kilindoni,-7.9139,39.6668,82.4,77,89,12.46,TZ,1707180582
380,chifeng,42.2683,118.9636,18.5,63,89,3.65,CN,1707180846
381,shubarshi,48.5872,57.1869,34.2,85,100,23.2,KZ,1707180846
382,ust-tsilma,65.441,52.1498,-28.39,100,100,1.01,RU,1707180847
383,boende,-0.2167,20.8667,72.18,83,100,2.8,CD,1707180847
384,ouarzazat,30.9189,-6.8934,52.09,24,0,3.44,MA,1707180847
385,tommot,58.9564,126.2925,-20.63,97,57,0.72,RU,1707180847
386,bayramaly,37.6185,62.1671,40.75,48,0,11.12,TM,1707180847
387,grand falls-windsor,48.9332,-55.6649,31.5,95,100,19.15,CA,1707180847
388,tromso,69.6496,18.957,15.82,79,75,3.44,NO,1707180585
389,chipping sodbury,51.5381,-2.3938,52.86,85,100,5.01,GB,1707180847
390,palikir - national government center,6.9248,158.1611,86.85,66,100,9.22,FM,1707180847
391,tindouf,27.6711,-8.1474,54.05,40,0,6.91,DZ,1707180782
392,aldama,22.9167,-98.0667,70.5,32,0,12.33,MX,1707180848
393,oban,56.4127,-5.4706,43.38,92,100,9.04,GB,1707180848
394,broome,42.2506,-75.833,32.7,77,0,10.36,US,1707180848
395,uturoa,-16.7333,-151.4333,80.82,87,100,10.47,PF,1707180788
396,rio san juan,19.6439,-70.0763,76.59,84,91,3.98,DO,1707180848
397,margate,51.3813,1.3862,51.91,79,100,13.0,GB,1707180818
398,morondava,-20.2833,44.2833,79.7,84,5,5.14,MG,1707180848
399,touros,-5.1989,-35.4608,81.37,78,72,12.01,BR,1707180552
400,sassnitz,54.5167,13.65,46.8,92,100,32.32,DE,1707180849
401,walvis bay,-22.9575,14.5053,67.15,88,88,4.61,NA,1707180849
402,ketchikan,55.3422,-131.6461,39.18,81,20,10.36,US,1707180839
403,tabou,4.423,-7.3528,81.39,76,58,5.44,CI,1707180849
404,ascope,-7.7144,-79.1078,74.53,76,85,3.76,PE,1707180849
405,polyarnyy,69.1989,33.4478,-2.56,100,100,8.59,RU,1707180849
406,miles city,46.4083,-105.8406,43.77,70,0,5.75,US,1707180649
407,minot air force base,48.4209,-101.3391,37.58,86,100,8.05,US,1707180849
408,eastham,41.8301,-69.9739,35.98,67,100,15.01,US,1707180681
409,al fallujah,33.3538,43.7795,53.49,54,79,10.25,IQ,1707180850
410,mil'kovo,55.6078,37.7956,26.11,96,100,6.71,RU,1707180776
411,amos,48.5669,-78.1162,25.99,86,99,3.27,CA,1707180565
412,aleksandrovsk-sakhalinskiy,50.8975,142.1561,2.57,89,42,3.18,RU,1707180850
413,progreso,21.2833,-89.6667,68.11,71,100,24.43,MX,1707180738
414,klaksvik,62.2266,-6.589,31.12,67,100,35.48,FO,1707180850
415,kavaratti,10.5669,72.642,81.72,76,100,9.24,IN,1707180850
416,antsiranana,-12.2787,49.2917,75.49,92,47,3.91,MG,1707180850
417,bandarbeyla,9.4942,50.8122,76.55,79,4,10.09,SO,1707180663
418,jala,21.0833,-104.4333,71.49,17,6,1.12,MX,1707180851
419,daokou,35.5639,114.5058,28.71,80,100,3.96,CN,1707180851
420,sao tome,0.3365,6.7273,81.23,78,100,3.89,ST,1707180851
421,attapeu,14.8,106.8333,82.18,55,4,0.76,LA,1707180851
422,tarecuato,19.85,-102.4833,59.23,20,6,3.49,MX,1707180851
423,puerto asis,0.5133,-76.5007,72.19,100,100,2.21,CO,1707180851
424,jevargi,17.0167,76.7667,73.98,58,2,8.43,IN,1707180851
425,tateyama,34.9833,139.8667,42.1,98,100,20.76,JP,1707180851
426,manacapuru,-3.2997,-60.6206,80.1,80,36,2.44,BR,1707180737
427,george town,5.4112,100.3354,81.95,87,20,2.3,MY,1707180852
428,gizo,-8.103,156.8419,84.07,78,63,14.47,SB,1707180852
429,mejit,10.2753,170.8646,80.37,80,9,18.97,MH,1707180660
430,pitimbu,-7.4706,-34.8086,82.99,77,57,8.39,BR,1707180852
431,kill devil hills,36.0307,-75.676,44.98,79,0,12.66,US,1707180852
432,pandan,14.0453,124.1694,79.83,81,100,14.63,PH,1707180852
433,ilo,-17.6394,-71.3375,74.88,90,31,5.06,PE,1707180852
434,la ronge,55.1001,-105.2842,23.25,80,100,10.36,CA,1707180852
435,bairnsdale,-37.8333,147.6167,67.05,62,64,1.01,AU,1707180686
436,aleksandrovsk,59.158,57.5624,17.8,92,100,6.89,RU,1707180853
437,agios nikolaos,35.1914,25.7133,58.86,52,0,2.57,GR,1707180853
438,qarqaraly,49.4058,75.4742,7.23,86,100,7.07,KZ,1707180853
439,inarajan village,13.2736,144.7484,83.79,74,99,18.77,GU,1707180853
440,oriximina,-1.7656,-55.8661,82.31,66,100,3.51,BR,1707180853
441,berdigestyakh,62.0989,126.6992,-32.66,100,81,2.19,RU,1707180580
442,doullens,50.1572,2.3402,51.6,76,100,18.34,FR,1707180853
443,tralee,52.2704,-9.7026,50.41,91,73,13.44,IE,1707180572
444,clarence town,-32.5833,151.7833,81.81,66,98,3.27,AU,1707180853
445,genhe,50.7833,121.5167,-7.17,93,53,1.32,CN,1707180713
446,lacy-lakeview,31.6293,-97.1028,57.94,67,0,8.05,US,1707180854
447,ingeniero guillermo n. juarez,-23.9,-61.85,89.92,35,89,11.01,AR,1707180854
448,west bay,19.3667,-81.4167,78.87,57,20,20.71,KY,1707180854
449,svetlyy,54.675,20.1347,39.36,93,100,12.46,RU,1707180854
450,puerto madryn,-42.7692,-65.0385,74.71,49,100,13.85,AR,1707180854
451,mugia,43.1041,-9.2179,50.16,76,93,2.01,ES,1707180854
452,castillos,-34.1667,-53.8333,68.36,72,98,9.84,UY,1707180854
453,bukama,-9.2,25.85,69.44,98,100,2.35,CD,1707180734
454,noumea,-22.2763,166.4572,89.58,99,100,15.05,NC,1707180855
455,ta`u,-14.2336,-169.5144,82.87,75,100,4.16,AS,1707180855
456,suva,-18.1416,178.4415,83.68,79,75,4.61,FJ,1707180855
457,katsuura,35.1333,140.3,41.02,96,100,18.59,JP,1707180855
458,khagrachhari,23.1,91.9667,63.45,63,100,0.83,BD,1707180855
459,kourou,5.1552,-52.6478,80.65,89,100,7.96,GF,1707180855
460,tazacorte,28.629,-17.9293,67.15,24,0,6.91,ES,1707180855
461,mossel bay,-34.1831,22.146,71.53,82,35,3.44,ZA,1707180855
462,beloyarskiy,63.7119,66.6722,1.0,97,100,5.99,RU,1707180856
463,masterton,-40.9597,175.6575,82.09,17,63,7.76,NZ,1707180856
464,cam ranh,11.9214,109.1591,76.96,78,0,5.75,VN,1707180856
465,longboat key,27.4125,-82.659,62.64,68,100,5.75,US,1707180346
466,lokhvytsya,50.3678,33.2602,31.59,84,55,14.79,UA,1707180856
467,reyes,-14.3167,-67.3833,77.68,77,100,0.89,BO,1707180856
468,rajgarh,28.6333,75.3833,49.69,47,4,6.82,IN,1707180856
469,el fasher,13.6279,25.3494,57.97,18,13,7.0,SD,1707180856
470,montrose,38.4166,-108.2673,34.74,68,100,1.77,US,1707180856
471,lagunillas,10.1301,-71.2595,82.72,72,44,8.19,VE,1707180856
472,salinopolis,-0.6136,-47.3561,79.75,88,38,12.08,BR,1707180857
473,galesong,-5.3166,119.3661,82.42,76,91,4.7,ID,1707180857
474,sao vicente,-23.9631,-46.3919,83.26,26,14,3.0,BR,1707180857
475,warman,52.3168,-106.5679,23.09,92,100,10.36,CA,1707180857
476,putyvl',51.3374,33.8707,26.82,93,56,10.96,UA,1707180857
477,santa elena de uairen,4.6167,-61.1333,71.26,77,85,2.1,VE,1707180857
478,rongelap,11.1635,166.8941,79.79,82,100,20.0,MH,1707180857
479,nadi,-17.8,177.4167,87.8,70,75,11.5,FJ,1707180857
480,igatpuri,19.7,73.55,66.15,48,0,4.56,IN,1707180857
481,sullivan,36.5168,-82.5332,56.44,41,0,9.22,US,1707180857
482,porto seguro,-16.4497,-39.0647,82.92,78,40,6.91,BR,1707180858
483,abepura,-2.6333,140.5833,88.61,66,75,5.75,ID,1707180755
484,nelson bay,-32.7167,152.15,80.01,88,87,13.0,AU,1707180858
485,villa yapacani,-17.4,-63.8333,74.95,84,43,3.62,BO,1707180858
486,guerrero negro,27.9769,-114.0611,63.16,63,23,10.0,MX,1707180858
487,viedma,-40.8135,-62.9967,84.36,46,45,16.67,AR,1707180623
488,souillac,-20.5167,57.5167,72.36,83,20,3.44,MU,1707180726
489,yuzhno-sukhokumsk,44.6581,45.6436,36.97,95,100,21.16,RU,1707180858
490,graham,47.0529,-122.2943,44.62,89,100,4.61,US,1707180858
491,hami,42.8,93.45,22.01,57,8,5.7,CN,1707180858
492,hovd,48.0056,91.6419,-5.57,91,20,1.57,MN,1707180859
493,novospasskoye,53.1468,47.7514,31.71,97,100,12.55,RU,1707180859
494,koster,-25.863,26.8976,63.36,42,4,6.04,ZA,1707180859
495,gora kalwaria,51.9765,21.2154,46.38,81,100,21.59,PL,1707180859
496,shibirghan,36.6676,65.7529,41.94,52,1,9.62,AF,1707180859
497,yarrawonga,-36.0167,146.0,73.51,28,0,13.56,AU,1707180859
498,puerto cabezas,14.0351,-83.3888,75.49,82,62,14.34,NI,1707180859
499,malango,-2.9627,119.9001,76.69,73,93,1.88,ID,1707180859
500,ephrata,40.1798,-76.1788,38.52,73,0,6.91,US,1707180860
501,urzhar,47.093,81.6294,13.05,70,14,4.9,KZ,1707180860
502,aden,12.7794,45.0367,76.98,77,5,3.2,YE,1707180860
503,chibougamau,49.9168,-74.3659,6.42,78,0,4.61,CA,1707180860
504,sydney mines,46.2367,-60.2177,35.55,98,100,17.0,CA,1707180860
505,namibe,-15.1961,12.1522,76.33,81,100,7.36,AO,1707180860
506,balabac,7.9868,117.0645,81.3,72,47,11.9,PH,1707180860
507,dunda,-8.1167,34.25,64.51,95,100,2.19,TZ,1707180860
508,zhangjiajie,29.1294,110.4783,31.03,97,100,2.04,CN,1707180860
509,sarupathar,26.1984,93.8094,54.63,96,77,2.35,IN,1707180861
510,suklayin,15.7574,121.5503,78.53,76,54,1.99,PH,1707180861
511,ola,59.5833,151.2833,3.15,77,100,10.09,RU,1707180567
512,skagen,57.7209,10.5839,36.57,75,100,4.05,DK,1707180861
513,soe,-9.8607,124.284,70.11,87,100,1.97,ID,1707180861
514,portales,34.1862,-103.3344,59.99,43,9,7.65,US,1707180861
515,kuhdasht,33.535,47.6061,37.44,93,100,1.36,IR,1707180861
516,el calafate,-50.3408,-72.2768,53.13,65,47,7.29,AR,1707180861
517,n'zeto,-7.2312,12.8666,80.31,84,100,3.74,AO,1707180861
518,groningen,53.25,6.75,50.16,82,100,23.02,NL,1707180781
519,sola,-13.8833,167.55,83.37,71,100,13.71,VU,1707180751
520,fernie,49.5,-115.0687,35.8,98,100,1.95,CA,1707180862
521,manggar,-2.8833,108.2667,80.26,81,100,5.14,ID,1707180862
522,brooks,50.5834,-111.8851,13.98,85,100,1.14,CA,1707180862
523,dabola,10.75,-11.1167,75.31,19,0,1.79,GN,1707180862
524,ciudad bolivar,8.1222,-63.5497,89.11,44,100,7.38,VE,1707180862
525,kaka,37.3482,59.6143,47.32,43,40,6.24,TM,1707180862
526,kaga bandoro,6.9896,19.1874,74.53,27,0,4.23,CF,1707180862
527,pampa del indio,-26.0647,-59.919,86.79,42,93,4.61,AR,1707180862
528,laojunmiao,39.8333,97.7333,14.22,79,100,5.37,CN,1707180863
529,matias barbosa,-21.8692,-43.3194,69.82,91,100,2.55,BR,1707180863
530,kenora,49.8167,-94.4337,31.17,100,100,10.36,CA,1707180612
531,koumra,8.9126,17.5539,75.16,19,100,6.17,TD,1707180863
532,vernon,50.2581,-119.2691,35.76,88,100,1.14,CA,1707180595
533,hailey,43.5196,-114.3153,37.26,87,100,0.0,US,1707180863
534,northam,51.0333,-4.2167,55.65,96,100,23.49,GB,1707180863
535,kratie,12.4881,106.0188,80.44,61,11,4.12,KH,1707180863
536,cromer,52.9312,1.2989,52.14,74,100,28.39,GB,1707180863
537,puerto ayacucho,5.6639,-67.6236,76.59,92,100,5.59,VE,1707180863
538,chake chake,-5.2459,39.7666,79.48,83,79,6.46,TZ,1707180864
539,xianshuigu,38.985,117.3828,23.0,93,19,2.24,CN,1707180864
540,qulsary,46.9531,54.0198,34.43,82,100,13.0,KZ,1707180864
541,tabas,33.5959,56.9244,46.71,24,20,7.56,IR,1707180703
542,acarau,-2.8856,-40.12,81.61,78,51,15.26,BR,1707180864
543,riohacha,11.5444,-72.9072,82.51,94,40,6.91,CO,1707180864
544,svencionys,55.15,26.1667,24.84,91,91,9.35,LT,1707180864
545,gao,16.6362,1.637,62.38,17,100,13.85,ML,1707180865
546,bonthe,7.5264,-12.505,77.7,88,0,2.13,SL,1707180865
547,camana,-16.6228,-72.7111,76.57,83,71,3.47,PE,1707180865
548,bonito,-21.1211,-56.4819,72.91,87,100,4.56,BR,1707180865
549,huarmey,-10.0681,-78.1522,77.02,79,80,8.25,PE,1707180865
550,prince rupert,54.3161,-130.3201,40.69,70,0,12.66,CA,1707180865
551,guines,50.8671,1.8703,51.89,88,100,27.02,FR,1707180865
552,loa janan,-0.583,117.095,79.74,80,100,2.3,ID,1707180865
553,teloloapan,18.35,-99.85,66.42,28,0,2.91,MX,1707180865
554,kabinda,-6.1333,24.4833,66.97,93,100,1.54,CD,1707180866
555,luwuk,-0.9516,122.7875,82.72,77,100,4.07,ID,1707180675
556,hobyo,5.3505,48.5268,79.05,77,81,16.17,SO,1707180866
557,carauari,-4.8828,-66.8958,74.7,97,98,1.63,BR,1707180866
558,upper hutt,-41.1383,175.0502,82.63,33,65,11.32,NZ,1707180663
559,sidi ifni,29.3797,-10.173,58.75,42,100,4.18,MA,1707180866
560,stettler,52.3168,-112.7186,19.15,100,100,5.75,CA,1707180866
561,mitsamiouli,-11.3847,43.2844,83.7,77,100,8.75,KM,1707180866
562,yeppoon,-23.1333,150.7333,89.38,64,0,8.32,AU,1707180866
563,harstad,68.799,16.5293,28.15,94,99,7.0,NO,1707180866
564,oyama,36.3,139.8,35.67,85,99,6.2,JP,1707180867
565,rabaul,-4.1967,152.1721,84.25,72,100,7.45,PG,1707180867
566,jakarta,-6.2146,106.8451,85.51,93,40,0.0,ID,1707180607
567,ardanuc,41.1274,42.0629,39.63,98,100,6.22,TR,1707180867
568,saudarkrokur,65.7461,-19.6394,20.46,91,100,17.52,IS,1707180867
569,puerto san jose,13.9256,-90.8244,84.25,79,40,9.22,GT,1707180867
570,khuzdar,27.7384,66.6434,48.34,78,42,2.48,PK,1707180867
571,lascano,-33.6667,-54.2,67.12,78,11,10.29,UY,1707180867
572,pisco,-13.7,-76.2167,77.05,83,0,12.66,PE,1707180867
573,staraya russa,57.9944,31.3608,24.98,96,99,5.59,RU,1707180608
574,moyamba,8.1667,-12.4333,72.86,95,0,1.7,SL,1707180868
575,loango,-4.6719,11.8312,76.66,88,20,3.44,CG,1707180868
576,gulf shores,30.246,-87.7008,53.35,74,100,11.5,US,1707180577
577,chichimila,20.6167,-88.2167,73.45,55,13,9.6,MX,1707180868
